[
  {
    "id": "city:mesa:us",
    "name": "Mesa",
    "kind": "city",
    "countryCode": "US",
    "country": "United States of America",
    "iso2": "US",
    "iso3": "USA",
    "region": "North America",
    "lat": 33.414795714987406,
    "lng": -111.82096696450179,
    "population": 1085394,
    "scalerank": 8,
    "difficulty": "hard"
  },
  {
    "id": "city:sharjah:ae",
    "name": "Sharjah",
    "kind": "city",
    "countryCode": "AE",
    "country": "United Arab Emirates",
    "iso2": "AE",
    "iso3": "ARE",
    "region": "Asia",
    "lat": 25.3713829,
    "lng": 55.4064782,
    "population": 1103027,
    "scalerank": 8,
    "difficulty": "hard"
  },
  {
    "id": "city:changwon:kr",
    "name": "Changwon",
    "kind": "city",
    "countryCode": "KR",
    "country": "South Korea",
    "iso2": "KR",
    "iso3": "KOR",
    "region": "Asia",
    "lat": 35.2191022,
    "lng": 128.583562,
    "population": 1081499,
    "scalerank": 8,
    "difficulty": "hard"
  },
  {
    "id": "city:sheffield:gb",
    "name": "Sheffield",
    "kind": "city",
    "countryCode": "GB",
    "country": "United Kingdom",
    "iso2": "GB",
    "iso3": "GBR",
    "region": "Europe",
    "lat": 53.3666767,
    "lng": -1.4999966,
    "population": 1292900,
    "scalerank": 8,
    "difficulty": "hard"
  },
  {
    "id": "city:abbottabad:pk",
    "name": "Abbottabad",
    "kind": "city",
    "countryCode": "PK",
    "country": "Pakistan",
    "iso2": "PK",
    "iso3": "PAK",
    "region": "Asia",
    "lat": 34.1495034,
    "lng": 73.1995007,
    "population": 1183647,
    "scalerank": 8,
    "difficulty": "hard"
  },
  {
    "id": "city:nezahualcoyotl:mx",
    "name": "Nezahualcoyotl",
    "kind": "city",
    "countryCode": "MX",
    "country": "Mexico",
    "iso2": "MX",
    "iso3": "MEX",
    "region": "North America",
    "lat": 19.4100155,
    "lng": -99.0299866,
    "population": 1109363,
    "scalerank": 8,
    "difficulty": "hard"
  },
  {
    "id": "city:duisburg:de",
    "name": "Duisburg",
    "kind": "city",
    "countryCode": "DE",
    "country": "Germany",
    "iso2": "DE",
    "iso3": "DEU",
    "region": "Europe",
    "lat": 51.4299732,
    "lng": 6.7500166,
    "population": 1276757,
    "scalerank": 8,
    "difficulty": "hard"
  },
  {
    "id": "city:essen:de",
    "name": "Essen",
    "kind": "city",
    "countryCode": "DE",
    "country": "Germany",
    "iso2": "DE",
    "iso3": "DEU",
    "region": "Europe",
    "lat": 51.4499978,
    "lng": 7.0166154,
    "population": 1742135,
    "scalerank": 8,
    "difficulty": "hard"
  },
  {
    "id": "city:zhucheng:cn",
    "name": "Zhucheng",
    "kind": "city",
    "countryCode": "CN",
    "country": "China",
    "iso2": "CN",
    "iso3": "CHN",
    "region": "Asia",
    "lat": 35.9899595,
    "lng": 119.3800927,
    "population": 1060000,
    "scalerank": 8,
    "difficulty": "hard"
  },
  {
    "id": "city:kawasaki:jp",
    "name": "Kawasaki",
    "kind": "city",
    "countryCode": "JP",
    "country": "Japan",
    "iso2": "JP",
    "iso3": "JPN",
    "region": "Asia",
    "lat": 35.5299876,
    "lng": 139.705002,
    "population": 1437266,
    "scalerank": 8,
    "difficulty": "hard"
  },
  {
    "id": "city:kalyan:in",
    "name": "Kalyan",
    "kind": "city",
    "countryCode": "IN",
    "country": "India",
    "iso2": "IN",
    "iso3": "IND",
    "region": "Asia",
    "lat": 19.250232,
    "lng": 73.1601749,
    "population": 1576614,
    "scalerank": 8,
    "difficulty": "hard"
  },
  {
    "id": "city:niter-i:br",
    "name": "Niterói",
    "kind": "city",
    "countryCode": "BR",
    "country": "Brazil",
    "iso2": "BR",
    "iso3": "BRA",
    "region": "South America",
    "lat": -22.88253375568974,
    "lng": -43.10582636571889,
    "population": 1500513,
    "scalerank": 8,
    "difficulty": "hard"
  },
  {
    "id": "city:zhongli:tw",
    "name": "Zhongli",
    "kind": "city",
    "countryCode": "TW",
    "country": "Taiwan",
    "iso2": "TW",
    "iso3": "TWN",
    "region": "Asia",
    "lat": 24.9650252,
    "lng": 121.2167765,
    "population": 1632616,
    "scalerank": 7,
    "difficulty": "hard"
  },
  {
    "id": "city:irvine:us",
    "name": "Irvine",
    "kind": "city",
    "countryCode": "US",
    "country": "United States of America",
    "iso2": "US",
    "iso3": "USA",
    "region": "North America",
    "lat": 33.6804106,
    "lng": -117.8299502,
    "population": 3010232,
    "scalerank": 7,
    "difficulty": "hard"
  },
  {
    "id": "city:fort-lauderdale:us",
    "name": "Fort Lauderdale",
    "kind": "city",
    "countryCode": "US",
    "country": "United States of America",
    "iso2": "US",
    "iso3": "USA",
    "region": "North America",
    "lat": 26.1360649,
    "lng": -80.1417855,
    "population": 2042042,
    "scalerank": 7,
    "difficulty": "hard"
  },
  {
    "id": "city:dammam:sa",
    "name": "Dammam",
    "kind": "city",
    "countryCode": "SA",
    "country": "Saudi Arabia",
    "iso2": "SA",
    "iso3": "SAU",
    "region": "Asia",
    "lat": 26.4301376,
    "lng": 50.0977245,
    "population": 2054710,
    "scalerank": 7,
    "difficulty": "hard"
  },
  {
    "id": "city:quezon-city:ph",
    "name": "Quezon City",
    "kind": "city",
    "countryCode": "PH",
    "country": "Philippines",
    "iso2": "PH",
    "iso3": "PHL",
    "region": "Asia",
    "lat": 14.6504352,
    "lng": 121.0299662,
    "population": 2761720,
    "scalerank": 7,
    "difficulty": "hard"
  },
  {
    "id": "city:toluca:mx",
    "name": "Toluca",
    "kind": "city",
    "countryCode": "MX",
    "country": "Mexico",
    "iso2": "MX",
    "iso3": "MEX",
    "region": "North America",
    "lat": 19.28930795148478,
    "lng": -99.65317928548968,
    "population": 1531000,
    "scalerank": 7,
    "difficulty": "hard"
  },
  {
    "id": "city:ikare:ng",
    "name": "Ikare",
    "kind": "city",
    "countryCode": "NG",
    "country": "Nigeria",
    "iso2": "NG",
    "iso3": "NGA",
    "region": "Africa",
    "lat": 7.5304305,
    "lng": 5.7599996,
    "population": 1099931,
    "scalerank": 7,
    "difficulty": "hard"
  },
  {
    "id": "city:katowice:pl",
    "name": "Katowice",
    "kind": "city",
    "countryCode": "PL",
    "country": "Poland",
    "iso2": "PL",
    "iso3": "POL",
    "region": "Europe",
    "lat": 50.2603805,
    "lng": 19.020017,
    "population": 2746000,
    "scalerank": 7,
    "difficulty": "hard"
  },
  {
    "id": "city:hechi:cn",
    "name": "Hechi",
    "kind": "city",
    "countryCode": "CN",
    "country": "China",
    "iso2": "CN",
    "iso3": "CHN",
    "region": "Asia",
    "lat": 24.695252134251945,
    "lng": 108.08299950401414,
    "population": 3830000,
    "scalerank": 7,
    "difficulty": "hard"
  },
  {
    "id": "city:zhangzhou:cn",
    "name": "Zhangzhou",
    "kind": "city",
    "countryCode": "CN",
    "country": "China",
    "iso2": "CN",
    "iso3": "CHN",
    "region": "Asia",
    "lat": 24.5203754,
    "lng": 117.6700162,
    "population": 3531147,
    "scalerank": 7,
    "difficulty": "hard"
  },
  {
    "id": "city:maanshan:cn",
    "name": "Maanshan",
    "kind": "city",
    "countryCode": "CN",
    "country": "China",
    "iso2": "CN",
    "iso3": "CHN",
    "region": "Asia",
    "lat": 31.672563922240595,
    "lng": 118.4851484740624,
    "population": 1366302,
    "scalerank": 7,
    "difficulty": "hard"
  },
  {
    "id": "city:maoming:cn",
    "name": "Maoming",
    "kind": "city",
    "countryCode": "CN",
    "country": "China",
    "iso2": "CN",
    "iso3": "CHN",
    "region": "Asia",
    "lat": 21.9204049,
    "lng": 110.8700179,
    "population": 1217715,
    "scalerank": 7,
    "difficulty": "hard"
  },
  {
    "id": "city:cilacap:id",
    "name": "Cilacap",
    "kind": "city",
    "countryCode": "ID",
    "country": "Indonesia",
    "iso2": "ID",
    "iso3": "IDN",
    "region": "Asia",
    "lat": -7.7188196,
    "lng": 109.0154024,
    "population": 1174964,
    "scalerank": 7,
    "difficulty": "hard"
  },
  {
    "id": "city:bekasi:id",
    "name": "Bekasi",
    "kind": "city",
    "countryCode": "ID",
    "country": "Indonesia",
    "iso2": "ID",
    "iso3": "IDN",
    "region": "Asia",
    "lat": -6.2172575,
    "lng": 106.972323,
    "population": 2378211,
    "scalerank": 7,
    "difficulty": "hard"
  },
  {
    "id": "city:d-sseldorf:de",
    "name": "Düsseldorf",
    "kind": "city",
    "countryCode": "DE",
    "country": "Germany",
    "iso2": "DE",
    "iso3": "DEU",
    "region": "Europe",
    "lat": 51.2203736,
    "lng": 6.779989,
    "population": 1220000,
    "scalerank": 7,
    "difficulty": "hard"
  },
  {
    "id": "city:mannheim:de",
    "name": "Mannheim",
    "kind": "city",
    "countryCode": "DE",
    "country": "Germany",
    "iso2": "DE",
    "iso3": "DEU",
    "region": "Europe",
    "lat": 49.5003752,
    "lng": 8.470015,
    "population": 2362000,
    "scalerank": 7,
    "difficulty": "hard"
  },
  {
    "id": "city:xiangtan:cn",
    "name": "Xiangtan",
    "kind": "city",
    "countryCode": "CN",
    "country": "China",
    "iso2": "CN",
    "iso3": "CHN",
    "region": "Asia",
    "lat": 27.8504305,
    "lng": 112.9000232,
    "population": 2586948,
    "scalerank": 7,
    "difficulty": "hard"
  },
  {
    "id": "city:zigong:cn",
    "name": "Zigong",
    "kind": "city",
    "countryCode": "CN",
    "country": "China",
    "iso2": "CN",
    "iso3": "CHN",
    "region": "Asia",
    "lat": 29.4019459,
    "lng": 104.7780561,
    "population": 1105000,
    "scalerank": 7,
    "difficulty": "hard"
  },
  {
    "id": "city:baoding:cn",
    "name": "Baoding",
    "kind": "city",
    "countryCode": "CN",
    "country": "China",
    "iso2": "CN",
    "iso3": "CHN",
    "region": "Asia",
    "lat": 38.85834026064811,
    "lng": 115.46889650311108,
    "population": 1107000,
    "scalerank": 7,
    "difficulty": "hard"
  },
  {
    "id": "city:shangrao:cn",
    "name": "Shangrao",
    "kind": "city",
    "countryCode": "CN",
    "country": "China",
    "iso2": "CN",
    "iso3": "CHN",
    "region": "Asia",
    "lat": 28.4703927,
    "lng": 117.9699979,
    "population": 1144577,
    "scalerank": 7,
    "difficulty": "hard"
  },
  {
    "id": "city:shuyang:cn",
    "name": "Shuyang",
    "kind": "city",
    "countryCode": "CN",
    "country": "China",
    "iso2": "CN",
    "iso3": "CHN",
    "region": "Asia",
    "lat": 34.1298664,
    "lng": 118.7733597,
    "population": 1770000,
    "scalerank": 7,
    "difficulty": "hard"
  },
  {
    "id": "city:haifa:il",
    "name": "Haifa",
    "kind": "city",
    "countryCode": "IL",
    "country": "Israel",
    "iso2": "IL",
    "iso3": "ISR",
    "region": "Asia",
    "lat": 32.8223573,
    "lng": 34.9780789,
    "population": 1011000,
    "scalerank": 7,
    "difficulty": "hard"
  },
  {
    "id": "city:karaj:ir",
    "name": "Karaj",
    "kind": "city",
    "countryCode": "IR",
    "country": "Iran",
    "iso2": "IR",
    "iso3": "IRN",
    "region": "Asia",
    "lat": 35.8023046,
    "lng": 50.968059,
    "population": 1423000,
    "scalerank": 7,
    "difficulty": "hard"
  },
  {
    "id": "city:haora:in",
    "name": "Haora",
    "kind": "city",
    "countryCode": "IN",
    "country": "India",
    "iso2": "IN",
    "iso3": "IND",
    "region": "Asia",
    "lat": 22.584697601843814,
    "lng": 88.31851641697797,
    "population": 4841638,
    "scalerank": 7,
    "difficulty": "hard"
  },
  {
    "id": "city:long-beach:us",
    "name": "Long Beach",
    "kind": "city",
    "countryCode": "US",
    "country": "United States of America",
    "iso2": "US",
    "iso3": "USA",
    "region": "North America",
    "lat": 33.77701767314316,
    "lng": -118.20033735659706,
    "population": 2036134,
    "scalerank": 6,
    "difficulty": "hard"
  },
  {
    "id": "city:barquisimeto:ve",
    "name": "Barquisimeto",
    "kind": "city",
    "countryCode": "VE",
    "country": "Venezuela",
    "iso2": "VE",
    "iso3": "VEN",
    "region": "South America",
    "lat": 10.0519384,
    "lng": -69.3019125,
    "population": 1116000,
    "scalerank": 6,
    "difficulty": "hard"
  },
  {
    "id": "city:providence:us",
    "name": "Providence",
    "kind": "city",
    "countryCode": "US",
    "country": "United States of America",
    "iso2": "US",
    "iso3": "USA",
    "region": "North America",
    "lat": 41.8230482,
    "lng": -71.4169256,
    "population": 1277000,
    "scalerank": 6,
    "difficulty": "hard"
  },
  {
    "id": "city:birmingham:us",
    "name": "Birmingham",
    "kind": "city",
    "countryCode": "US",
    "country": "United States of America",
    "iso2": "US",
    "iso3": "USA",
    "region": "North America",
    "lat": 33.5300063,
    "lng": -86.8249952,
    "population": 1128047,
    "scalerank": 6,
    "difficulty": "hard"
  },
  {
    "id": "city:virginia-beach:us",
    "name": "Virginia Beach",
    "kind": "city",
    "countryCode": "US",
    "country": "United States of America",
    "iso2": "US",
    "iso3": "USA",
    "region": "North America",
    "lat": 36.8551602,
    "lng": -75.9802646,
    "population": 1491000,
    "scalerank": 6,
    "difficulty": "hard"
  },
  {
    "id": "city:suwon:kr",
    "name": "Suwon",
    "kind": "city",
    "countryCode": "KR",
    "country": "South Korea",
    "iso2": "KR",
    "iso3": "KOR",
    "region": "Asia",
    "lat": 37.259735,
    "lng": 127.0089472,
    "population": 1078000,
    "scalerank": 6,
    "difficulty": "hard"
  },
  {
    "id": "city:leeds:gb",
    "name": "Leeds",
    "kind": "city",
    "countryCode": "GB",
    "country": "United Kingdom",
    "iso2": "GB",
    "iso3": "GBR",
    "region": "Europe",
    "lat": 53.790016637752316,
    "lng": -1.5513477114128407,
    "population": 1529000,
    "scalerank": 6,
    "difficulty": "hard"
  },
  {
    "id": "city:porto:pt",
    "name": "Porto",
    "kind": "city",
    "countryCode": "PT",
    "country": "Portugal",
    "iso2": "PT",
    "iso3": "PRT",
    "region": "Europe",
    "lat": 41.1519522,
    "lng": -8.6219471,
    "population": 1337000,
    "scalerank": 6,
    "difficulty": "hard"
  },
  {
    "id": "city:rotterdam:nl",
    "name": "Rotterdam",
    "kind": "city",
    "countryCode": "NL",
    "country": "Netherlands",
    "iso2": "NL",
    "iso3": "NLD",
    "region": "Europe",
    "lat": 51.921915,
    "lng": 4.4780285,
    "population": 1005000,
    "scalerank": 6,
    "difficulty": "hard"
  },
  {
    "id": "city:faisalabad:pk",
    "name": "Faisalabad",
    "kind": "city",
    "countryCode": "PK",
    "country": "Pakistan",
    "iso2": "PK",
    "iso3": "PAK",
    "region": "Asia",
    "lat": 31.4119266,
    "lng": 73.1080513,
    "population": 2617000,
    "scalerank": 6,
    "difficulty": "hard"
  },
  {
    "id": "city:rawalpindi:pk",
    "name": "Rawalpindi",
    "kind": "city",
    "countryCode": "PK",
    "country": "Pakistan",
    "iso2": "PK",
    "iso3": "PAK",
    "region": "Asia",
    "lat": 33.59100229452351,
    "lng": 73.06750207299349,
    "population": 1858000,
    "scalerank": 6,
    "difficulty": "hard"
  },
  {
    "id": "city:saidu:pk",
    "name": "Saidu",
    "kind": "city",
    "countryCode": "PK",
    "country": "Pakistan",
    "iso2": "PK",
    "iso3": "PAK",
    "region": "Asia",
    "lat": 34.7500352,
    "lng": 72.3499918,
    "population": 1860310,
    "scalerank": 6,
    "difficulty": "hard"
  },
  {
    "id": "city:benoni:za",
    "name": "Benoni",
    "kind": "city",
    "countryCode": "ZA",
    "country": "South Africa",
    "iso2": "ZA",
    "iso3": "ZAF",
    "region": "Africa",
    "lat": -26.147635,
    "lng": 28.3279939,
    "population": 2986000,
    "scalerank": 6,
    "difficulty": "hard"
  },
  {
    "id": "city:vereeniging:za",
    "name": "Vereeniging",
    "kind": "city",
    "countryCode": "ZA",
    "country": "South Africa",
    "iso2": "ZA",
    "iso3": "ZAF",
    "region": "Africa",
    "lat": -26.6476562,
    "lng": 27.9580423,
    "population": 1074000,
    "scalerank": 6,
    "difficulty": "hard"
  },
  {
    "id": "city:ulsan:kr",
    "name": "Ulsan",
    "kind": "city",
    "countryCode": "KR",
    "country": "South Korea",
    "iso2": "KR",
    "iso3": "KOR",
    "region": "Asia",
    "lat": 35.5486766,
    "lng": 129.315008,
    "population": 1061000,
    "scalerank": 6,
    "difficulty": "hard"
  },
  {
    "id": "city:daegu:kr",
    "name": "Daegu",
    "kind": "city",
    "countryCode": "KR",
    "country": "South Korea",
    "iso2": "KR",
    "iso3": "KOR",
    "region": "Asia",
    "lat": 35.8687346,
    "lng": 128.6050255,
    "population": 2460000,
    "scalerank": 6,
    "difficulty": "hard"
  },
  {
    "id": "city:ciudad-ju-rez:mx",
    "name": "Ciudad Juárez",
    "kind": "city",
    "countryCode": "MX",
    "country": "Mexico",
    "iso2": "MX",
    "iso3": "MEX",
    "region": "North America",
    "lat": 31.6923229,
    "lng": -106.4919939,
    "population": 1343000,
    "scalerank": 6,
    "difficulty": "hard"
  },
  {
    "id": "city:nampo:kp",
    "name": "Nampo",
    "kind": "city",
    "countryCode": "KP",
    "country": "North Korea",
    "iso2": "KP",
    "iso3": "PRK",
    "region": "Asia",
    "lat": 38.7688666,
    "lng": 125.450488,
    "population": 1127000,
    "scalerank": 6,
    "difficulty": "hard"
  },
  {
    "id": "city:turin:it",
    "name": "Turin",
    "kind": "city",
    "countryCode": "IT",
    "country": "Italy",
    "iso2": "IT",
    "iso3": "ITA",
    "region": "Europe",
    "lat": 45.072333,
    "lng": 7.6680146,
    "population": 1652000,
    "scalerank": 6,
    "difficulty": "hard"
  },
  {
    "id": "city:liuzhou:cn",
    "name": "Liuzhou",
    "kind": "city",
    "countryCode": "CN",
    "country": "China",
    "iso2": "CN",
    "iso3": "CHN",
    "region": "Asia",
    "lat": 24.32077729521669,
    "lng": 109.41352949573252,
    "population": 1497000,
    "scalerank": 6,
    "difficulty": "hard"
  },
  {
    "id": "city:wanzhou:cn",
    "name": "Wanzhou",
    "kind": "city",
    "countryCode": "CN",
    "country": "China",
    "iso2": "CN",
    "iso3": "CHN",
    "region": "Asia",
    "lat": 30.8199909,
    "lng": 108.4000394,
    "population": 1680000,
    "scalerank": 6,
    "difficulty": "hard"
  },
  {
    "id": "city:luan:cn",
    "name": "Luan",
    "kind": "city",
    "countryCode": "CN",
    "country": "China",
    "iso2": "CN",
    "iso3": "CHN",
    "region": "Asia",
    "lat": 31.7522934,
    "lng": 116.4780655,
    "population": 1690000,
    "scalerank": 6,
    "difficulty": "hard"
  },
  {
    "id": "city:bucaramanga:co",
    "name": "Bucaramanga",
    "kind": "city",
    "countryCode": "CO",
    "country": "Colombia",
    "iso2": "CO",
    "iso3": "COL",
    "region": "South America",
    "lat": 7.1320391,
    "lng": -73.1278289,
    "population": 1009000,
    "scalerank": 6,
    "difficulty": "hard"
  },
  {
    "id": "city:giza:eg",
    "name": "Giza",
    "kind": "city",
    "countryCode": "EG",
    "country": "Egypt",
    "iso2": "EG",
    "iso3": "EGY",
    "region": "Africa",
    "lat": 30.0099886,
    "lng": 31.1900236,
    "population": 2681863,
    "scalerank": 6,
    "difficulty": "hard"
  },
  {
    "id": "city:stuttgart:de",
    "name": "Stuttgart",
    "kind": "city",
    "countryCode": "DE",
    "country": "Germany",
    "iso2": "DE",
    "iso3": "DEU",
    "region": "Europe",
    "lat": 48.7799799,
    "lng": 9.1999963,
    "population": 2944700,
    "scalerank": 6,
    "difficulty": "medium"
  },
  {
    "id": "city:haikou:cn",
    "name": "Haikou",
    "kind": "city",
    "countryCode": "CN",
    "country": "China",
    "iso2": "CN",
    "iso3": "CHN",
    "region": "Asia",
    "lat": 20.0500023,
    "lng": 110.3200256,
    "population": 2046189,
    "scalerank": 6,
    "difficulty": "hard"
  },
  {
    "id": "city:datong:cn",
    "name": "Datong",
    "kind": "city",
    "countryCode": "CN",
    "country": "China",
    "iso2": "CN",
    "iso3": "CHN",
    "region": "Asia",
    "lat": 40.0819658,
    "lng": 113.2980529,
    "population": 1873000,
    "scalerank": 6,
    "difficulty": "hard"
  },
  {
    "id": "city:jianmen:cn",
    "name": "Jianmen",
    "kind": "city",
    "countryCode": "CN",
    "country": "China",
    "iso2": "CN",
    "iso3": "CHN",
    "region": "Asia",
    "lat": 30.6519988,
    "lng": 113.1580614,
    "population": 1708000,
    "scalerank": 6,
    "difficulty": "hard"
  },
  {
    "id": "city:xiantao:cn",
    "name": "Xiantao",
    "kind": "city",
    "countryCode": "CN",
    "country": "China",
    "iso2": "CN",
    "iso3": "CHN",
    "region": "Asia",
    "lat": 30.3723518,
    "lng": 113.438096,
    "population": 1556000,
    "scalerank": 6,
    "difficulty": "hard"
  },
  {
    "id": "city:zhuzhou:cn",
    "name": "Zhuzhou",
    "kind": "city",
    "countryCode": "CN",
    "country": "China",
    "iso2": "CN",
    "iso3": "CHN",
    "region": "Asia",
    "lat": 27.8319384,
    "lng": 113.1480879,
    "population": 1080000,
    "scalerank": 6,
    "difficulty": "hard"
  },
  {
    "id": "city:yongzhou:cn",
    "name": "Yongzhou",
    "kind": "city",
    "countryCode": "CN",
    "country": "China",
    "iso2": "CN",
    "iso3": "CHN",
    "region": "Asia",
    "lat": 26.417919935871467,
    "lng": 111.60913498645752,
    "population": 1000000,
    "scalerank": 6,
    "difficulty": "hard"
  },
  {
    "id": "city:yiyang:cn",
    "name": "Yiyang",
    "kind": "city",
    "countryCode": "CN",
    "country": "China",
    "iso2": "CN",
    "iso3": "CHN",
    "region": "Asia",
    "lat": 28.6023564,
    "lng": 112.3280862,
    "population": 1352000,
    "scalerank": 6,
    "difficulty": "hard"
  },
  {
    "id": "city:changde:cn",
    "name": "Changde",
    "kind": "city",
    "countryCode": "CN",
    "country": "China",
    "iso2": "CN",
    "iso3": "CHN",
    "region": "Asia",
    "lat": 29.0319426,
    "lng": 111.6781001,
    "population": 1469000,
    "scalerank": 6,
    "difficulty": "hard"
  },
  {
    "id": "city:leshan:cn",
    "name": "Leshan",
    "kind": "city",
    "countryCode": "CN",
    "country": "China",
    "iso2": "CN",
    "iso3": "CHN",
    "region": "Asia",
    "lat": 29.5690416,
    "lng": 103.7314017,
    "population": 1157000,
    "scalerank": 6,
    "difficulty": "hard"
  },
  {
    "id": "city:luzhou:cn",
    "name": "Luzhou",
    "kind": "city",
    "countryCode": "CN",
    "country": "China",
    "iso2": "CN",
    "iso3": "CHN",
    "region": "Asia",
    "lat": 28.8819259,
    "lng": 105.3780712,
    "population": 1537000,
    "scalerank": 6,
    "difficulty": "hard"
  },
  {
    "id": "city:qinhuangdao:cn",
    "name": "Qinhuangdao",
    "kind": "city",
    "countryCode": "CN",
    "country": "China",
    "iso2": "CN",
    "iso3": "CHN",
    "region": "Asia",
    "lat": 39.9323109,
    "lng": 119.6180805,
    "population": 1003000,
    "scalerank": 6,
    "difficulty": "hard"
  },
  {
    "id": "city:zhangjiakou:cn",
    "name": "Zhangjiakou",
    "kind": "city",
    "countryCode": "CN",
    "country": "China",
    "iso2": "CN",
    "iso3": "CHN",
    "region": "Asia",
    "lat": 40.80525516933235,
    "lng": 114.85202691011438,
    "population": 1046000,
    "scalerank": 6,
    "difficulty": "hard"
  },
  {
    "id": "city:tangshan:cn",
    "name": "Tangshan",
    "kind": "city",
    "countryCode": "CN",
    "country": "China",
    "iso2": "CN",
    "iso3": "CHN",
    "region": "Asia",
    "lat": 39.626283,
    "lng": 118.1924311,
    "population": 1879000,
    "scalerank": 6,
    "difficulty": "hard"
  },
  {
    "id": "city:shangqiu:cn",
    "name": "Shangqiu",
    "kind": "city",
    "countryCode": "CN",
    "country": "China",
    "iso2": "CN",
    "iso3": "CHN",
    "region": "Asia",
    "lat": 34.4129416652438,
    "lng": 115.64961002215703,
    "population": 1753000,
    "scalerank": 6,
    "difficulty": "hard"
  },
  {
    "id": "city:xinyang:cn",
    "name": "Xinyang",
    "kind": "city",
    "countryCode": "CN",
    "country": "China",
    "iso2": "CN",
    "iso3": "CHN",
    "region": "Asia",
    "lat": 32.1323219,
    "lng": 114.0680317,
    "population": 1541000,
    "scalerank": 6,
    "difficulty": "hard"
  },
  {
    "id": "city:luoyang:cn",
    "name": "Luoyang",
    "kind": "city",
    "countryCode": "CN",
    "country": "China",
    "iso2": "CN",
    "iso3": "CHN",
    "region": "Asia",
    "lat": 34.643770028425635,
    "lng": 112.44447121332469,
    "population": 1715000,
    "scalerank": 6,
    "difficulty": "hard"
  },
  {
    "id": "city:benxi:cn",
    "name": "Benxi",
    "kind": "city",
    "countryCode": "CN",
    "country": "China",
    "iso2": "CN",
    "iso3": "CHN",
    "region": "Asia",
    "lat": 41.3323288,
    "lng": 123.748061,
    "population": 1012000,
    "scalerank": 6,
    "difficulty": "hard"
  },
  {
    "id": "city:fushun:cn",
    "name": "Fushun",
    "kind": "city",
    "countryCode": "CN",
    "country": "China",
    "iso2": "CN",
    "iso3": "CHN",
    "region": "Asia",
    "lat": 41.8673349,
    "lng": 123.8680537,
    "population": 1470000,
    "scalerank": 6,
    "difficulty": "hard"
  },
  {
    "id": "city:jining:cn",
    "name": "Jining",
    "kind": "city",
    "countryCode": "CN",
    "country": "China",
    "iso2": "CN",
    "iso3": "CHN",
    "region": "Asia",
    "lat": 35.4023548,
    "lng": 116.5480871,
    "population": 1186000,
    "scalerank": 6,
    "difficulty": "hard"
  },
  {
    "id": "city:weifang:cn",
    "name": "Weifang",
    "kind": "city",
    "countryCode": "CN",
    "country": "China",
    "iso2": "CN",
    "iso3": "CHN",
    "region": "Asia",
    "lat": 36.702285137592035,
    "lng": 119.15562569942898,
    "population": 1553000,
    "scalerank": 6,
    "difficulty": "hard"
  },
  {
    "id": "city:taian:cn",
    "name": "Taian",
    "kind": "city",
    "countryCode": "CN",
    "country": "China",
    "iso2": "CN",
    "iso3": "CHN",
    "region": "Asia",
    "lat": 36.2019443,
    "lng": 117.1181298,
    "population": 1629000,
    "scalerank": 6,
    "difficulty": "hard"
  },
  {
    "id": "city:heze:cn",
    "name": "Heze",
    "kind": "city",
    "countryCode": "CN",
    "country": "China",
    "iso2": "CN",
    "iso3": "CHN",
    "region": "Asia",
    "lat": 35.2319259,
    "lng": 115.4481025,
    "population": 1338000,
    "scalerank": 6,
    "difficulty": "hard"
  },
  {
    "id": "city:ganzhou:cn",
    "name": "Ganzhou",
    "kind": "city",
    "countryCode": "CN",
    "country": "China",
    "iso2": "CN",
    "iso3": "CHN",
    "region": "Asia",
    "lat": 25.9199799,
    "lng": 114.9500272,
    "population": 1500000,
    "scalerank": 6,
    "difficulty": "hard"
  },
  {
    "id": "city:changzhou:cn",
    "name": "Changzhou",
    "kind": "city",
    "countryCode": "CN",
    "country": "China",
    "iso2": "CN",
    "iso3": "CHN",
    "region": "Asia",
    "lat": 31.7819298,
    "lng": 119.9680333,
    "population": 1327000,
    "scalerank": 6,
    "difficulty": "hard"
  },
  {
    "id": "city:huzhou:cn",
    "name": "Huzhou",
    "kind": "city",
    "countryCode": "CN",
    "country": "China",
    "iso2": "CN",
    "iso3": "CHN",
    "region": "Asia",
    "lat": 30.8723212,
    "lng": 120.0980513,
    "population": 1231000,
    "scalerank": 6,
    "difficulty": "hard"
  },
  {
    "id": "city:jinhua:cn",
    "name": "Jinhua",
    "kind": "city",
    "countryCode": "CN",
    "country": "China",
    "iso2": "CN",
    "iso3": "CHN",
    "region": "Asia",
    "lat": 29.1200429,
    "lng": 119.6499987,
    "population": 1092852,
    "scalerank": 6,
    "difficulty": "hard"
  },
  {
    "id": "city:mudangiang:cn",
    "name": "Mudangiang",
    "kind": "city",
    "countryCode": "CN",
    "country": "China",
    "iso2": "CN",
    "iso3": "CHN",
    "region": "Asia",
    "lat": 44.5769628,
    "lng": 129.5880663,
    "population": 1244000,
    "scalerank": 6,
    "difficulty": "hard"
  },
  {
    "id": "city:k-be:jp",
    "name": "Kōbe",
    "kind": "city",
    "countryCode": "JP",
    "country": "Japan",
    "iso2": "JP",
    "iso3": "JPN",
    "region": "Asia",
    "lat": 34.6799878,
    "lng": 135.1699816,
    "population": 1528478,
    "scalerank": 6,
    "difficulty": "hard"
  },
  {
    "id": "city:yokohama:jp",
    "name": "Yokohama",
    "kind": "city",
    "countryCode": "JP",
    "country": "Japan",
    "iso2": "JP",
    "iso3": "JPN",
    "region": "Asia",
    "lat": 35.4306562,
    "lng": 139.602021,
    "population": 3697894,
    "scalerank": 6,
    "difficulty": "hard"
  },
  {
    "id": "city:warangal:in",
    "name": "Warangal",
    "kind": "city",
    "countryCode": "IN",
    "country": "India",
    "iso2": "IN",
    "iso3": "IND",
    "region": "Asia",
    "lat": 18.0099976,
    "lng": 79.5799898,
    "population": 1203853,
    "scalerank": 6,
    "difficulty": "hard"
  },
  {
    "id": "city:lille:fr",
    "name": "Lille",
    "kind": "city",
    "countryCode": "FR",
    "country": "France",
    "iso2": "FR",
    "iso3": "FRA",
    "region": "Europe",
    "lat": 50.651915,
    "lng": 3.0780622,
    "population": 1044000,
    "scalerank": 6,
    "difficulty": "hard"
  },
  {
    "id": "city:oakland:us",
    "name": "Oakland",
    "kind": "city",
    "countryCode": "US",
    "country": "United States of America",
    "iso2": "US",
    "iso3": "USA",
    "region": "North America",
    "lat": 37.80472502788702,
    "lng": -122.27803818707952,
    "population": 1510271,
    "scalerank": 6,
    "difficulty": "hard"
  },
  {
    "id": "city:west-palm-beach:us",
    "name": "West Palm Beach",
    "kind": "city",
    "countryCode": "US",
    "country": "United States of America",
    "iso2": "US",
    "iso3": "USA",
    "region": "North America",
    "lat": 26.74502,
    "lng": -80.1236213,
    "population": 1250000,
    "scalerank": 6,
    "difficulty": "hard"
  },
  {
    "id": "city:columbus:us",
    "name": "Columbus",
    "kind": "city",
    "countryCode": "US",
    "country": "United States of America",
    "iso2": "US",
    "iso3": "USA",
    "region": "North America",
    "lat": 39.9819202,
    "lng": -82.9919555,
    "population": 1270000,
    "scalerank": 6,
    "difficulty": "hard"
  },
  {
    "id": "city:maracay:ve",
    "name": "Maracay",
    "kind": "city",
    "countryCode": "VE",
    "country": "Venezuela",
    "iso2": "VE",
    "iso3": "VEN",
    "region": "South America",
    "lat": 10.2488256,
    "lng": -67.597753,
    "population": 1007000,
    "scalerank": 6,
    "difficulty": "hard"
  },
  {
    "id": "city:can-tho:vn",
    "name": "Can Tho",
    "kind": "city",
    "countryCode": "VN",
    "country": "Vietnam",
    "iso2": "VN",
    "iso3": "VNM",
    "region": "Asia",
    "lat": 10.0499925,
    "lng": 105.7700191,
    "population": 1121000,
    "scalerank": 6,
    "difficulty": "hard"
  },
  {
    "id": "city:vit-ria:br",
    "name": "Vitória",
    "kind": "city",
    "countryCode": "BR",
    "country": "Brazil",
    "iso2": "BR",
    "iso3": "BRA",
    "region": "South America",
    "lat": -20.332042290924733,
    "lng": -40.35394335476039,
    "population": 1704000,
    "scalerank": 6,
    "difficulty": "hard"
  },
  {
    "id": "city:cochabamba:bo",
    "name": "Cochabamba",
    "kind": "city",
    "countryCode": "BO",
    "country": "Bolivia",
    "iso2": "BO",
    "iso3": "BOL",
    "region": "South America",
    "lat": -17.410011,
    "lng": -66.1699768,
    "population": 1000000,
    "scalerank": 6,
    "difficulty": "hard"
  },
  {
    "id": "city:gaziantep:tr",
    "name": "Gaziantep",
    "kind": "city",
    "countryCode": "TR",
    "country": "Turkey",
    "iso2": "TR",
    "iso3": "TUR",
    "region": "Asia",
    "lat": 37.0769296,
    "lng": 37.3830484,
    "population": 1044000,
    "scalerank": 6,
    "difficulty": "hard"
  },
  {
    "id": "city:homs:sy",
    "name": "Homs",
    "kind": "city",
    "countryCode": "SY",
    "country": "Syria",
    "iso2": "SY",
    "iso3": "SYR",
    "region": "Asia",
    "lat": 34.7319048,
    "lng": 36.7180761,
    "population": 1005000,
    "scalerank": 6,
    "difficulty": "hard"
  },
  {
    "id": "city:cagayan-de-oro:ph",
    "name": "Cagayan de Oro",
    "kind": "city",
    "countryCode": "PH",
    "country": "Philippines",
    "iso2": "PH",
    "iso3": "PHL",
    "region": "Asia",
    "lat": 8.4508395,
    "lng": 124.6852986,
    "population": 1121561,
    "scalerank": 6,
    "difficulty": "hard"
  },
  {
    "id": "city:zhuhai:cn",
    "name": "Zhuhai",
    "kind": "city",
    "countryCode": "CN",
    "country": "China",
    "iso2": "CN",
    "iso3": "CHN",
    "region": "Asia",
    "lat": 22.2788903,
    "lng": 113.5658319,
    "population": 1023000,
    "scalerank": 6,
    "difficulty": "hard"
  },
  {
    "id": "city:cologne:de",
    "name": "Cologne",
    "kind": "city",
    "countryCode": "DE",
    "country": "Germany",
    "iso2": "DE",
    "iso3": "DEU",
    "region": "Europe",
    "lat": 50.9319495,
    "lng": 6.9480586,
    "population": 1004000,
    "scalerank": 6,
    "difficulty": "hard"
  },
  {
    "id": "city:xianyang:cn",
    "name": "Xianyang",
    "kind": "city",
    "countryCode": "CN",
    "country": "China",
    "iso2": "CN",
    "iso3": "CHN",
    "region": "Asia",
    "lat": 34.3475015,
    "lng": 108.7127763,
    "population": 1126000,
    "scalerank": 6,
    "difficulty": "hard"
  },
  {
    "id": "city:xiangyang:cn",
    "name": "Xiangyang",
    "kind": "city",
    "countryCode": "CN",
    "country": "China",
    "iso2": "CN",
    "iso3": "CHN",
    "region": "Asia",
    "lat": 32.021941,
    "lng": 112.1280985,
    "population": 1069000,
    "scalerank": 6,
    "difficulty": "hard"
  },
  {
    "id": "city:suining:cn",
    "name": "Suining",
    "kind": "city",
    "countryCode": "CN",
    "country": "China",
    "iso2": "CN",
    "iso3": "CHN",
    "region": "Asia",
    "lat": 30.5352792,
    "lng": 105.5313874,
    "population": 1425000,
    "scalerank": 6,
    "difficulty": "hard"
  },
  {
    "id": "city:kumasi:gh",
    "name": "Kumasi",
    "kind": "city",
    "countryCode": "GH",
    "country": "Ghana",
    "iso2": "GH",
    "iso3": "GHA",
    "region": "Africa",
    "lat": 6.6919367,
    "lng": -1.6319603,
    "population": 1646000,
    "scalerank": 6,
    "difficulty": "hard"
  },
  {
    "id": "city:vila-velha:br",
    "name": "Vila Velha",
    "kind": "city",
    "countryCode": "BR",
    "country": "Brazil",
    "iso2": "BR",
    "iso3": "BRA",
    "region": "South America",
    "lat": 3.2166628,
    "lng": -51.2166519,
    "population": 1209091,
    "scalerank": 6,
    "difficulty": "hard"
  },
  {
    "id": "city:santos:br",
    "name": "Santos",
    "kind": "city",
    "countryCode": "BR",
    "country": "Brazil",
    "iso2": "BR",
    "iso3": "BRA",
    "region": "South America",
    "lat": -23.961835598193826,
    "lng": -46.32849571460007,
    "population": 1709000,
    "scalerank": 6,
    "difficulty": "hard"
  },
  {
    "id": "city:new-taipei:tw",
    "name": "New Taipei",
    "kind": "city",
    "countryCode": "TW",
    "country": "Taiwan",
    "iso2": "TW",
    "iso3": "TWN",
    "region": "Asia",
    "lat": 25.0127778,
    "lng": 121.465,
    "population": 3893740,
    "scalerank": 5,
    "difficulty": "hard"
  },
  {
    "id": "city:tainan:tw",
    "name": "Tainan",
    "kind": "city",
    "countryCode": "TW",
    "country": "Taiwan",
    "iso2": "TW",
    "iso3": "TWN",
    "region": "Asia",
    "lat": 23.0000031,
    "lng": 120.2000427,
    "population": 1876312,
    "scalerank": 6,
    "difficulty": "hard"
  },
  {
    "id": "city:san-bernardino:us",
    "name": "San Bernardino",
    "kind": "city",
    "countryCode": "US",
    "country": "United States of America",
    "iso2": "US",
    "iso3": "USA",
    "region": "North America",
    "lat": 34.1223296,
    "lng": -117.3019801,
    "population": 1745000,
    "scalerank": 4,
    "difficulty": "hard"
  },
  {
    "id": "city:bridgeport:us",
    "name": "Bridgeport",
    "kind": "city",
    "countryCode": "US",
    "country": "United States of America",
    "iso2": "US",
    "iso3": "USA",
    "region": "North America",
    "lat": 41.1819245,
    "lng": -73.201907,
    "population": 1018000,
    "scalerank": 4,
    "difficulty": "hard"
  },
  {
    "id": "city:manchester:gb",
    "name": "Manchester",
    "kind": "city",
    "countryCode": "GB",
    "country": "United Kingdom",
    "iso2": "GB",
    "iso3": "GBR",
    "region": "Europe",
    "lat": 53.47531992472453,
    "lng": -2.2486846671598855,
    "population": 2230000,
    "scalerank": 4,
    "difficulty": "hard"
  },
  {
    "id": "city:gujranwala:pk",
    "name": "Gujranwala",
    "kind": "city",
    "countryCode": "PK",
    "country": "Pakistan",
    "iso2": "PK",
    "iso3": "PAK",
    "region": "Asia",
    "lat": 32.1623717,
    "lng": 74.1830761,
    "population": 1513000,
    "scalerank": 4,
    "difficulty": "hard"
  },
  {
    "id": "city:incheon:kr",
    "name": "Incheon",
    "kind": "city",
    "countryCode": "KR",
    "country": "South Korea",
    "iso2": "KR",
    "iso3": "KOR",
    "region": "Asia",
    "lat": 37.4780937,
    "lng": 126.6402876,
    "population": 2550000,
    "scalerank": 4,
    "difficulty": "hard"
  },
  {
    "id": "city:benin-city:ng",
    "name": "Benin City",
    "kind": "city",
    "countryCode": "NG",
    "country": "Nigeria",
    "iso2": "NG",
    "iso3": "NGA",
    "region": "Africa",
    "lat": 6.3424232,
    "lng": 5.6180622,
    "population": 1190000,
    "scalerank": 4,
    "difficulty": "hard"
  },
  {
    "id": "city:xiamen:cn",
    "name": "Xiamen",
    "kind": "city",
    "countryCode": "CN",
    "country": "China",
    "iso2": "CN",
    "iso3": "CHN",
    "region": "Asia",
    "lat": 24.4519379,
    "lng": 118.0780712,
    "population": 2519000,
    "scalerank": 4,
    "difficulty": "hard"
  },
  {
    "id": "city:nanchong:cn",
    "name": "Nanchong",
    "kind": "city",
    "countryCode": "CN",
    "country": "China",
    "iso2": "CN",
    "iso3": "CHN",
    "region": "Asia",
    "lat": 30.7823784,
    "lng": 106.1280513,
    "population": 2174000,
    "scalerank": 4,
    "difficulty": "hard"
  },
  {
    "id": "city:neijiang:cn",
    "name": "Neijiang",
    "kind": "city",
    "countryCode": "CN",
    "country": "China",
    "iso2": "CN",
    "iso3": "CHN",
    "region": "Asia",
    "lat": 29.5823225,
    "lng": 105.0480655,
    "population": 1466000,
    "scalerank": 4,
    "difficulty": "hard"
  },
  {
    "id": "city:nanyang:cn",
    "name": "Nanyang",
    "kind": "city",
    "countryCode": "CN",
    "country": "China",
    "iso2": "CN",
    "iso3": "CHN",
    "region": "Asia",
    "lat": 33.0023463,
    "lng": 112.528074,
    "population": 1944000,
    "scalerank": 4,
    "difficulty": "hard"
  },
  {
    "id": "city:jinxi:cn",
    "name": "Jinxi",
    "kind": "city",
    "countryCode": "CN",
    "country": "China",
    "iso2": "CN",
    "iso3": "CHN",
    "region": "Asia",
    "lat": 40.7522867,
    "lng": 120.8280325,
    "population": 2426000,
    "scalerank": 4,
    "difficulty": "hard"
  },
  {
    "id": "city:yantai:cn",
    "name": "Yantai",
    "kind": "city",
    "countryCode": "CN",
    "country": "China",
    "iso2": "CN",
    "iso3": "CHN",
    "region": "Asia",
    "lat": 37.532354,
    "lng": 121.3980753,
    "population": 2116000,
    "scalerank": 4,
    "difficulty": "hard"
  },
  {
    "id": "city:zaozhuang:cn",
    "name": "Zaozhuang",
    "kind": "city",
    "countryCode": "CN",
    "country": "China",
    "iso2": "CN",
    "iso3": "CHN",
    "region": "Asia",
    "lat": 34.8819473,
    "lng": 117.5680765,
    "population": 2145000,
    "scalerank": 4,
    "difficulty": "hard"
  },
  {
    "id": "city:suzhou:cn",
    "name": "Suzhou",
    "kind": "city",
    "countryCode": "CN",
    "country": "China",
    "iso2": "CN",
    "iso3": "CHN",
    "region": "Asia",
    "lat": 31.3024242,
    "lng": 120.6180712,
    "population": 1650000,
    "scalerank": 4,
    "difficulty": "hard"
  },
  {
    "id": "city:xuzhou:cn",
    "name": "Xuzhou",
    "kind": "city",
    "countryCode": "CN",
    "country": "China",
    "iso2": "CN",
    "iso3": "CHN",
    "region": "Asia",
    "lat": 34.2819581,
    "lng": 117.1780744,
    "population": 2091000,
    "scalerank": 4,
    "difficulty": "hard"
  },
  {
    "id": "city:wuxi:cn",
    "name": "Wuxi",
    "kind": "city",
    "countryCode": "CN",
    "country": "China",
    "iso2": "CN",
    "iso3": "CHN",
    "region": "Asia",
    "lat": 31.581942,
    "lng": 120.298039,
    "population": 1749000,
    "scalerank": 4,
    "difficulty": "hard"
  },
  {
    "id": "city:jilin:cn",
    "name": "Jilin",
    "kind": "city",
    "countryCode": "CN",
    "country": "China",
    "iso2": "CN",
    "iso3": "CHN",
    "region": "Asia",
    "lat": 43.8519166,
    "lng": 126.5480968,
    "population": 2396000,
    "scalerank": 4,
    "difficulty": "hard"
  },
  {
    "id": "city:sholapur:in",
    "name": "Sholapur",
    "kind": "city",
    "countryCode": "IN",
    "country": "India",
    "iso2": "IN",
    "iso3": "IND",
    "region": "Asia",
    "lat": 17.6723518,
    "lng": 75.8980618,
    "population": 1057000,
    "scalerank": 4,
    "difficulty": "hard"
  },
  {
    "id": "city:aurangabad:in",
    "name": "Aurangabad",
    "kind": "city",
    "countryCode": "IN",
    "country": "India",
    "iso2": "IN",
    "iso3": "IND",
    "region": "Asia",
    "lat": 19.861686210186296,
    "lng": 75.32894831924871,
    "population": 1113000,
    "scalerank": 4,
    "difficulty": "hard"
  },
  {
    "id": "city:nasik:in",
    "name": "Nasik",
    "kind": "city",
    "countryCode": "IN",
    "country": "India",
    "iso2": "IN",
    "iso3": "IND",
    "region": "Asia",
    "lat": 20.0023646,
    "lng": 73.7780362,
    "population": 1473000,
    "scalerank": 4,
    "difficulty": "hard"
  },
  {
    "id": "city:allahabad:in",
    "name": "Allahabad",
    "kind": "city",
    "countryCode": "IN",
    "country": "India",
    "iso2": "IN",
    "iso3": "IND",
    "region": "Asia",
    "lat": 25.4569412,
    "lng": 81.838061,
    "population": 1201000,
    "scalerank": 4,
    "difficulty": "hard"
  },
  {
    "id": "city:ghaziabad:in",
    "name": "Ghaziabad",
    "kind": "city",
    "countryCode": "IN",
    "country": "India",
    "iso2": "IN",
    "iso3": "IND",
    "region": "Asia",
    "lat": 28.6623269,
    "lng": 77.4064452,
    "population": 1341000,
    "scalerank": 4,
    "difficulty": "hard"
  },
  {
    "id": "city:agra:in",
    "name": "Agra",
    "kind": "city",
    "countryCode": "IN",
    "country": "India",
    "iso2": "IN",
    "iso3": "IND",
    "region": "Asia",
    "lat": 27.1723662,
    "lng": 78.0130749,
    "population": 1592000,
    "scalerank": 4,
    "difficulty": "hard"
  },
  {
    "id": "city:meerut:in",
    "name": "Meerut",
    "kind": "city",
    "countryCode": "IN",
    "country": "India",
    "iso2": "IN",
    "iso3": "IND",
    "region": "Asia",
    "lat": 29.0023579,
    "lng": 77.6980553,
    "population": 1398000,
    "scalerank": 4,
    "difficulty": "hard"
  },
  {
    "id": "city:dhanbad:in",
    "name": "Dhanbad",
    "kind": "city",
    "countryCode": "IN",
    "country": "India",
    "iso2": "IN",
    "iso3": "IND",
    "region": "Asia",
    "lat": 23.8023394,
    "lng": 86.4180399,
    "population": 1246000,
    "scalerank": 4,
    "difficulty": "hard"
  },
  {
    "id": "city:vadodara:in",
    "name": "Vadodara",
    "kind": "city",
    "countryCode": "IN",
    "country": "India",
    "iso2": "IN",
    "iso3": "IND",
    "region": "Asia",
    "lat": 22.3119652,
    "lng": 73.1780728,
    "population": 1756000,
    "scalerank": 4,
    "difficulty": "hard"
  },
  {
    "id": "city:rajkot:in",
    "name": "Rajkot",
    "kind": "city",
    "countryCode": "IN",
    "country": "India",
    "iso2": "IN",
    "iso3": "IND",
    "region": "Asia",
    "lat": 22.3119652,
    "lng": 70.7980631,
    "population": 1260000,
    "scalerank": 4,
    "difficulty": "hard"
  },
  {
    "id": "city:kansas-city:us",
    "name": "Kansas City",
    "kind": "city",
    "countryCode": "US",
    "country": "United States of America",
    "iso2": "US",
    "iso3": "USA",
    "region": "North America",
    "lat": 39.1090344,
    "lng": -94.6060401,
    "population": 1469000,
    "scalerank": 4,
    "difficulty": "hard"
  },
  {
    "id": "city:ft-worth:us",
    "name": "Ft.  Worth",
    "kind": "city",
    "countryCode": "US",
    "country": "United States of America",
    "iso2": "US",
    "iso3": "USA",
    "region": "North America",
    "lat": 32.739977,
    "lng": -97.3400381,
    "population": 1440454,
    "scalerank": 4,
    "difficulty": "hard"
  },
  {
    "id": "city:austin:us",
    "name": "Austin",
    "kind": "city",
    "countryCode": "US",
    "country": "United States of America",
    "iso2": "US",
    "iso3": "USA",
    "region": "North America",
    "lat": 30.2688955,
    "lng": -97.7447242,
    "population": 1161000,
    "scalerank": 4,
    "difficulty": "medium"
  },
  {
    "id": "city:orlando:us",
    "name": "Orlando",
    "kind": "city",
    "countryCode": "US",
    "country": "United States of America",
    "iso2": "US",
    "iso3": "USA",
    "region": "North America",
    "lat": 28.5119227,
    "lng": -81.3819762,
    "population": 1350000,
    "scalerank": 4,
    "difficulty": "hard"
  },
  {
    "id": "city:indianapolis:us",
    "name": "Indianapolis",
    "kind": "city",
    "countryCode": "US",
    "country": "United States of America",
    "iso2": "US",
    "iso3": "USA",
    "region": "North America",
    "lat": 39.7519343,
    "lng": -86.1719939,
    "population": 1436000,
    "scalerank": 4,
    "difficulty": "medium"
  },
  {
    "id": "city:baltimore:us",
    "name": "Baltimore",
    "kind": "city",
    "countryCode": "US",
    "country": "United States of America",
    "iso2": "US",
    "iso3": "USA",
    "region": "North America",
    "lat": 39.28151578641361,
    "lng": -76.6145820807727,
    "population": 2255000,
    "scalerank": 4,
    "difficulty": "hard"
  },
  {
    "id": "city:dnipro:ua",
    "name": "Dnipro",
    "kind": "city",
    "countryCode": "UA",
    "country": "Ukraine",
    "iso2": "UA",
    "iso3": "UKR",
    "region": "Europe",
    "lat": 48.4819182,
    "lng": 34.9980777,
    "population": 1050000,
    "scalerank": 4,
    "difficulty": "medium"
  },
  {
    "id": "city:kharkiv:ua",
    "name": "Kharkiv",
    "kind": "city",
    "countryCode": "UA",
    "country": "Ukraine",
    "iso2": "UA",
    "iso3": "UKR",
    "region": "Europe",
    "lat": 50.0019288,
    "lng": 36.2480789,
    "population": 1461000,
    "scalerank": 4,
    "difficulty": "medium"
  },
  {
    "id": "city:haiphong:vn",
    "name": "Haiphong",
    "kind": "city",
    "countryCode": "VN",
    "country": "Vietnam",
    "iso2": "VN",
    "iso3": "VNM",
    "region": "Asia",
    "lat": 20.8319522,
    "lng": 106.6781469,
    "population": 1969000,
    "scalerank": 4,
    "difficulty": "medium"
  },
  {
    "id": "city:da-nang:vn",
    "name": "Da Nang",
    "kind": "city",
    "countryCode": "VN",
    "country": "Vietnam",
    "iso2": "VN",
    "iso3": "VNM",
    "region": "Asia",
    "lat": 16.0600391,
    "lng": 108.2499711,
    "population": 1000000,
    "scalerank": 4,
    "difficulty": "medium"
  },
  {
    "id": "city:douala:cm",
    "name": "Douala",
    "kind": "city",
    "countryCode": "CM",
    "country": "Cameroon",
    "iso2": "CM",
    "iso3": "CMR",
    "region": "Africa",
    "lat": 4.0623556,
    "lng": 9.7080451,
    "population": 1906000,
    "scalerank": 4,
    "difficulty": "medium"
  },
  {
    "id": "city:birmingham:gb",
    "name": "Birmingham",
    "kind": "city",
    "countryCode": "GB",
    "country": "United Kingdom",
    "iso2": "GB",
    "iso3": "GBR",
    "region": "Europe",
    "lat": 52.4769198,
    "lng": -1.9219426,
    "population": 2285000,
    "scalerank": 4,
    "difficulty": "hard"
  },
  {
    "id": "city:i-zmir:tr",
    "name": "İzmir",
    "kind": "city",
    "countryCode": "TR",
    "country": "Turkey",
    "iso2": "TR",
    "iso3": "TUR",
    "region": "Asia",
    "lat": 38.4380955,
    "lng": 27.1498482,
    "population": 2587000,
    "scalerank": 4,
    "difficulty": "medium"
  },
  {
    "id": "city:bursa:tr",
    "name": "Bursa",
    "kind": "city",
    "countryCode": "TR",
    "country": "Turkey",
    "iso2": "TR",
    "iso3": "TUR",
    "region": "Asia",
    "lat": 40.2019327,
    "lng": 29.0680521,
    "population": 1492000,
    "scalerank": 4,
    "difficulty": "medium"
  },
  {
    "id": "city:adana:tr",
    "name": "Adana",
    "kind": "city",
    "countryCode": "TR",
    "country": "Turkey",
    "iso2": "TR",
    "iso3": "TUR",
    "region": "Asia",
    "lat": 36.9969345,
    "lng": 35.3180582,
    "population": 1293000,
    "scalerank": 4,
    "difficulty": "medium"
  },
  {
    "id": "city:medina:sa",
    "name": "Medina",
    "kind": "city",
    "countryCode": "SA",
    "country": "Saudi Arabia",
    "iso2": "SA",
    "iso3": "SAU",
    "region": "Asia",
    "lat": 24.5019349,
    "lng": 39.5780565,
    "population": 1010000,
    "scalerank": 4,
    "difficulty": "medium"
  },
  {
    "id": "city:omdurman:sd",
    "name": "Omdurman",
    "kind": "city",
    "countryCode": "SD",
    "country": "Sudan",
    "iso2": "SD",
    "iso3": "SDN",
    "region": "Africa",
    "lat": 15.6166811,
    "lng": 32.4800223,
    "population": 2395159,
    "scalerank": 4,
    "difficulty": "medium"
  },
  {
    "id": "city:the-hague:nl",
    "name": "The Hague",
    "kind": "city",
    "countryCode": "NL",
    "country": "Netherlands",
    "iso2": "NL",
    "iso3": "NLD",
    "region": "Europe",
    "lat": 52.0800368,
    "lng": 4.2699613,
    "population": 1406000,
    "scalerank": 4,
    "difficulty": "hard"
  },
  {
    "id": "city:rostov:ru",
    "name": "Rostov",
    "kind": "city",
    "countryCode": "RU",
    "country": "Russia",
    "iso2": "RU",
    "iso3": "RUS",
    "region": "Europe",
    "lat": 47.2365937,
    "lng": 39.7107099,
    "population": 1052000,
    "scalerank": 4,
    "difficulty": "medium"
  },
  {
    "id": "city:chelyabinsk:ru",
    "name": "Chelyabinsk",
    "kind": "city",
    "countryCode": "RU",
    "country": "Russia",
    "iso2": "RU",
    "iso3": "RUS",
    "region": "Europe",
    "lat": 55.1569371,
    "lng": 61.4367223,
    "population": 1091000,
    "scalerank": 4,
    "difficulty": "medium"
  },
  {
    "id": "city:omsk:ru",
    "name": "Omsk",
    "kind": "city",
    "countryCode": "RU",
    "country": "Russia",
    "iso2": "RU",
    "iso3": "RUS",
    "region": "Europe",
    "lat": 54.9919343,
    "lng": 73.3980077,
    "population": 1135000,
    "scalerank": 4,
    "difficulty": "medium"
  },
  {
    "id": "city:daejeon:kr",
    "name": "Daejeon",
    "kind": "city",
    "countryCode": "KR",
    "country": "South Korea",
    "iso2": "KR",
    "iso3": "KOR",
    "region": "Asia",
    "lat": 36.3374915,
    "lng": 127.4230822,
    "population": 1468000,
    "scalerank": 4,
    "difficulty": "medium"
  },
  {
    "id": "city:gwangju:kr",
    "name": "Gwangju",
    "kind": "city",
    "countryCode": "KR",
    "country": "South Korea",
    "iso2": "KR",
    "iso3": "KOR",
    "region": "Asia",
    "lat": 35.1729115,
    "lng": 126.9084883,
    "population": 1440000,
    "scalerank": 4,
    "difficulty": "medium"
  },
  {
    "id": "city:busan:kr",
    "name": "Busan",
    "kind": "city",
    "countryCode": "KR",
    "country": "South Korea",
    "iso2": "KR",
    "iso3": "KOR",
    "region": "Asia",
    "lat": 35.0969988,
    "lng": 129.0081017,
    "population": 3480000,
    "scalerank": 4,
    "difficulty": "medium"
  },
  {
    "id": "city:torre-n:mx",
    "name": "Torreón",
    "kind": "city",
    "countryCode": "MX",
    "country": "Mexico",
    "iso2": "MX",
    "iso3": "MEX",
    "region": "North America",
    "lat": 25.5719988,
    "lng": -103.4219487,
    "population": 1144000,
    "scalerank": 4,
    "difficulty": "hard"
  },
  {
    "id": "city:le-n:mx",
    "name": "León",
    "kind": "city",
    "countryCode": "MX",
    "country": "Mexico",
    "iso2": "MX",
    "iso3": "MEX",
    "region": "North America",
    "lat": 21.1519327,
    "lng": -101.7019762,
    "population": 1488000,
    "scalerank": 4,
    "difficulty": "hard"
  },
  {
    "id": "city:port-harcourt:ng",
    "name": "Port Harcourt",
    "kind": "city",
    "countryCode": "NG",
    "country": "Nigeria",
    "iso2": "NG",
    "iso3": "NGA",
    "region": "Africa",
    "lat": 4.8119481,
    "lng": 7.0080549,
    "population": 1020000,
    "scalerank": 4,
    "difficulty": "medium"
  },
  {
    "id": "city:ibadan:ng",
    "name": "Ibadan",
    "kind": "city",
    "countryCode": "NG",
    "country": "Nigeria",
    "iso2": "NG",
    "iso3": "NGA",
    "region": "Africa",
    "lat": 7.3819721,
    "lng": 3.9280362,
    "population": 2628000,
    "scalerank": 4,
    "difficulty": "medium"
  },
  {
    "id": "city:kaduna:ng",
    "name": "Kaduna",
    "kind": "city",
    "countryCode": "NG",
    "country": "Nigeria",
    "iso2": "NG",
    "iso3": "NGA",
    "region": "Africa",
    "lat": 10.5219613,
    "lng": 7.4380545,
    "population": 1442000,
    "scalerank": 4,
    "difficulty": "medium"
  },
  {
    "id": "city:florence:it",
    "name": "Florence",
    "kind": "city",
    "countryCode": "IT",
    "country": "Italy",
    "iso2": "IT",
    "iso3": "ITA",
    "region": "Europe",
    "lat": 43.7800008,
    "lng": 11.2500004,
    "population": 1500000,
    "scalerank": 4,
    "difficulty": "hard"
  },
  {
    "id": "city:george-town:my",
    "name": "George Town",
    "kind": "city",
    "countryCode": "MY",
    "country": "Malaysia",
    "iso2": "MY",
    "iso3": "MYS",
    "region": "Asia",
    "lat": 5.4136132,
    "lng": 100.3293679,
    "population": 2500000,
    "scalerank": 4,
    "difficulty": "medium"
  },
  {
    "id": "city:tianshui:cn",
    "name": "Tianshui",
    "kind": "city",
    "countryCode": "CN",
    "country": "China",
    "iso2": "CN",
    "iso3": "CHN",
    "region": "Asia",
    "lat": 34.6019644,
    "lng": 105.9180382,
    "population": 1225000,
    "scalerank": 4,
    "difficulty": "hard"
  },
  {
    "id": "city:yulin:cn",
    "name": "Yulin",
    "kind": "city",
    "countryCode": "CN",
    "country": "China",
    "iso2": "CN",
    "iso3": "CHN",
    "region": "Asia",
    "lat": 22.6319198,
    "lng": 110.1480643,
    "population": 1127000,
    "scalerank": 4,
    "difficulty": "hard"
  },
  {
    "id": "city:liupanshui:cn",
    "name": "Liupanshui",
    "kind": "city",
    "countryCode": "CN",
    "country": "China",
    "iso2": "CN",
    "iso3": "CHN",
    "region": "Asia",
    "lat": 26.5963807,
    "lng": 104.8313862,
    "population": 1221000,
    "scalerank": 4,
    "difficulty": "hard"
  },
  {
    "id": "city:quanzhou:cn",
    "name": "Quanzhou",
    "kind": "city",
    "countryCode": "CN",
    "country": "China",
    "iso2": "CN",
    "iso3": "CHN",
    "region": "Asia",
    "lat": 24.9019622,
    "lng": 118.5780407,
    "population": 1463000,
    "scalerank": 4,
    "difficulty": "hard"
  },
  {
    "id": "city:hefei:cn",
    "name": "Hefei",
    "kind": "city",
    "countryCode": "CN",
    "country": "China",
    "iso2": "CN",
    "iso3": "CHN",
    "region": "Asia",
    "lat": 31.8519772,
    "lng": 117.2780683,
    "population": 2035000,
    "scalerank": 4,
    "difficulty": "medium"
  },
  {
    "id": "city:suzhou:cn",
    "name": "Suzhou",
    "kind": "city",
    "countryCode": "CN",
    "country": "China",
    "iso2": "CN",
    "iso3": "CHN",
    "region": "Asia",
    "lat": 33.638057,
    "lng": 116.976943,
    "population": 1964000,
    "scalerank": 4,
    "difficulty": "hard"
  },
  {
    "id": "city:zhanjiang:cn",
    "name": "Zhanjiang",
    "kind": "city",
    "countryCode": "CN",
    "country": "China",
    "iso2": "CN",
    "iso3": "CHN",
    "region": "Asia",
    "lat": 21.2019296,
    "lng": 110.3780761,
    "population": 1590000,
    "scalerank": 4,
    "difficulty": "hard"
  },
  {
    "id": "city:santiago:do",
    "name": "Santiago",
    "kind": "city",
    "countryCode": "DO",
    "country": "Dominican Republic",
    "iso2": "DO",
    "iso3": "DOM",
    "region": "North America",
    "lat": 19.50001,
    "lng": -70.6700122,
    "population": 1550753,
    "scalerank": 4,
    "difficulty": "medium"
  },
  {
    "id": "city:barranquilla:co",
    "name": "Barranquilla",
    "kind": "city",
    "countryCode": "CO",
    "country": "Colombia",
    "iso2": "CO",
    "iso3": "COL",
    "region": "South America",
    "lat": 10.9619345,
    "lng": -74.8019127,
    "population": 1798000,
    "scalerank": 4,
    "difficulty": "medium"
  },
  {
    "id": "city:ankang:cn",
    "name": "Ankang",
    "kind": "city",
    "countryCode": "CN",
    "country": "China",
    "iso2": "CN",
    "iso3": "CHN",
    "region": "Asia",
    "lat": 32.6799807,
    "lng": 109.0200016,
    "population": 1100000,
    "scalerank": 4,
    "difficulty": "hard"
  },
  {
    "id": "city:hengyang:cn",
    "name": "Hengyang",
    "kind": "city",
    "countryCode": "CN",
    "country": "China",
    "iso2": "CN",
    "iso3": "CHN",
    "region": "Asia",
    "lat": 26.8819705,
    "lng": 112.5880704,
    "population": 1016000,
    "scalerank": 4,
    "difficulty": "hard"
  },
  {
    "id": "city:mianyang:cn",
    "name": "Mianyang",
    "kind": "city",
    "countryCode": "CN",
    "country": "China",
    "iso2": "CN",
    "iso3": "CHN",
    "region": "Asia",
    "lat": 31.46482758129281,
    "lng": 104.68999287876282,
    "population": 1396000,
    "scalerank": 4,
    "difficulty": "hard"
  },
  {
    "id": "city:baoshan:cn",
    "name": "Baoshan",
    "kind": "city",
    "countryCode": "CN",
    "country": "China",
    "iso2": "CN",
    "iso3": "CHN",
    "region": "Asia",
    "lat": 25.119977,
    "lng": 99.1500097,
    "population": 1000000,
    "scalerank": 4,
    "difficulty": "hard"
  },
  {
    "id": "city:shijiazhuang:cn",
    "name": "Shijiazhuang",
    "kind": "city",
    "countryCode": "CN",
    "country": "China",
    "iso2": "CN",
    "iso3": "CHN",
    "region": "Asia",
    "lat": 38.0519605,
    "lng": 114.4780325,
    "population": 2417000,
    "scalerank": 4,
    "difficulty": "medium"
  },
  {
    "id": "city:handan:cn",
    "name": "Handan",
    "kind": "city",
    "countryCode": "CN",
    "country": "China",
    "iso2": "CN",
    "iso3": "CHN",
    "region": "Asia",
    "lat": 36.5819211,
    "lng": 114.4780325,
    "population": 1631000,
    "scalerank": 4,
    "difficulty": "hard"
  },
  {
    "id": "city:anshan:cn",
    "name": "Anshan",
    "kind": "city",
    "countryCode": "CN",
    "country": "China",
    "iso2": "CN",
    "iso3": "CHN",
    "region": "Asia",
    "lat": 41.1169672,
    "lng": 122.9380846,
    "population": 1639000,
    "scalerank": 4,
    "difficulty": "hard"
  },
  {
    "id": "city:dalian:cn",
    "name": "Dalian",
    "kind": "city",
    "countryCode": "CN",
    "country": "China",
    "iso2": "CN",
    "iso3": "CHN",
    "region": "Asia",
    "lat": 38.9247843,
    "lng": 121.627885,
    "population": 3167000,
    "scalerank": 4,
    "difficulty": "hard"
  },
  {
    "id": "city:qingdao:cn",
    "name": "Qingdao",
    "kind": "city",
    "countryCode": "CN",
    "country": "China",
    "iso2": "CN",
    "iso3": "CHN",
    "region": "Asia",
    "lat": 36.0919251,
    "lng": 120.3280631,
    "population": 2866000,
    "scalerank": 4,
    "difficulty": "hard"
  },
  {
    "id": "city:linyi:cn",
    "name": "Linyi",
    "kind": "city",
    "countryCode": "CN",
    "country": "China",
    "iso2": "CN",
    "iso3": "CHN",
    "region": "Asia",
    "lat": 35.0819351,
    "lng": 118.3280301,
    "population": 2082000,
    "scalerank": 4,
    "difficulty": "hard"
  },
  {
    "id": "city:huaiyin:cn",
    "name": "Huaiyin",
    "kind": "city",
    "countryCode": "CN",
    "country": "China",
    "iso2": "CN",
    "iso3": "CHN",
    "region": "Asia",
    "lat": 33.58516490333014,
    "lng": 119.06596724668917,
    "population": 1264000,
    "scalerank": 4,
    "difficulty": "hard"
  },
  {
    "id": "city:wenzhou:cn",
    "name": "Wenzhou",
    "kind": "city",
    "countryCode": "CN",
    "country": "China",
    "iso2": "CN",
    "iso3": "CHN",
    "region": "Asia",
    "lat": 28.0219268,
    "lng": 120.6481469,
    "population": 2350000,
    "scalerank": 4,
    "difficulty": "hard"
  },
  {
    "id": "city:ningbo:cn",
    "name": "Ningbo",
    "kind": "city",
    "countryCode": "CN",
    "country": "China",
    "iso2": "CN",
    "iso3": "CHN",
    "region": "Asia",
    "lat": 29.8819166,
    "lng": 121.5480919,
    "population": 1923000,
    "scalerank": 4,
    "difficulty": "hard"
  },
  {
    "id": "city:fukuoka:jp",
    "name": "Fukuoka",
    "kind": "city",
    "countryCode": "JP",
    "country": "Japan",
    "iso2": "JP",
    "iso3": "JPN",
    "region": "Asia",
    "lat": 33.5969611,
    "lng": 130.4080679,
    "population": 2792000,
    "scalerank": 4,
    "difficulty": "hard"
  },
  {
    "id": "city:hohhot:cn",
    "name": "Hohhot",
    "kind": "city",
    "countryCode": "CN",
    "country": "China",
    "iso2": "CN",
    "iso3": "CHN",
    "region": "Asia",
    "lat": 40.8219207,
    "lng": 111.6580496,
    "population": 1726000,
    "scalerank": 4,
    "difficulty": "medium"
  },
  {
    "id": "city:chifeng:cn",
    "name": "Chifeng",
    "kind": "city",
    "countryCode": "CN",
    "country": "China",
    "iso2": "CN",
    "iso3": "CHN",
    "region": "Asia",
    "lat": 42.2719613,
    "lng": 118.9480439,
    "population": 1277000,
    "scalerank": 4,
    "difficulty": "hard"
  },
  {
    "id": "city:jiamusi:cn",
    "name": "Jiamusi",
    "kind": "city",
    "countryCode": "CN",
    "country": "China",
    "iso2": "CN",
    "iso3": "CHN",
    "region": "Asia",
    "lat": 46.8319672,
    "lng": 130.3480716,
    "population": 1020000,
    "scalerank": 4,
    "difficulty": "hard"
  },
  {
    "id": "city:daqing:cn",
    "name": "Daqing",
    "kind": "city",
    "countryCode": "CN",
    "country": "China",
    "iso2": "CN",
    "iso3": "CHN",
    "region": "Asia",
    "lat": 46.581905,
    "lng": 124.9980622,
    "population": 1693000,
    "scalerank": 4,
    "difficulty": "hard"
  },
  {
    "id": "city:nagoya:jp",
    "name": "Nagoya",
    "kind": "city",
    "countryCode": "JP",
    "country": "Japan",
    "iso2": "JP",
    "iso3": "JPN",
    "region": "Asia",
    "lat": 35.1569434,
    "lng": 136.9130456,
    "population": 3230000,
    "scalerank": 4,
    "difficulty": "hard"
  },
  {
    "id": "city:kyoto:jp",
    "name": "Kyoto",
    "kind": "city",
    "countryCode": "JP",
    "country": "Japan",
    "iso2": "JP",
    "iso3": "JPN",
    "region": "Asia",
    "lat": 35.0319381,
    "lng": 135.7480521,
    "population": 1805000,
    "scalerank": 4,
    "difficulty": "hard"
  },
  {
    "id": "city:sendai:jp",
    "name": "Sendai",
    "kind": "city",
    "countryCode": "JP",
    "country": "Japan",
    "iso2": "JP",
    "iso3": "JPN",
    "region": "Asia",
    "lat": 38.2684409197744,
    "lng": 140.86966685536837,
    "population": 2250000,
    "scalerank": 4,
    "difficulty": "hard"
  },
  {
    "id": "city:mbuji-mayi:cd",
    "name": "Mbuji-Mayi",
    "kind": "city",
    "countryCode": "CD",
    "country": "Congo (Kinshasa)",
    "iso2": "CD",
    "iso3": "COD",
    "region": "Africa",
    "lat": -6.1480806,
    "lng": 23.59805,
    "population": 1295000,
    "scalerank": 4,
    "difficulty": "medium"
  },
  {
    "id": "city:faridabad:in",
    "name": "Faridabad",
    "kind": "city",
    "countryCode": "IN",
    "country": "India",
    "iso2": "IN",
    "iso3": "IND",
    "region": "Asia",
    "lat": 28.4352792,
    "lng": 77.3147208,
    "population": 1394000,
    "scalerank": 4,
    "difficulty": "hard"
  },
  {
    "id": "city:srinagar:in",
    "name": "Srinagar",
    "kind": "city",
    "countryCode": "IN",
    "country": "India",
    "iso2": "IN",
    "iso3": "IND",
    "region": "Asia",
    "lat": 34.069473874645354,
    "lng": 74.82830910981222,
    "population": 1140000,
    "scalerank": 4,
    "difficulty": "medium"
  },
  {
    "id": "city:vijayawada:in",
    "name": "Vijayawada",
    "kind": "city",
    "countryCode": "IN",
    "country": "India",
    "iso2": "IN",
    "iso3": "IND",
    "region": "Asia",
    "lat": 16.5219052,
    "lng": 80.6280574,
    "population": 1137000,
    "scalerank": 4,
    "difficulty": "hard"
  },
  {
    "id": "city:kochi:in",
    "name": "Kochi",
    "kind": "city",
    "countryCode": "IN",
    "country": "India",
    "iso2": "IN",
    "iso3": "IND",
    "region": "Asia",
    "lat": 10.0169534,
    "lng": 76.2219697,
    "population": 1519000,
    "scalerank": 4,
    "difficulty": "hard"
  },
  {
    "id": "city:marseille:fr",
    "name": "Marseille",
    "kind": "city",
    "countryCode": "FR",
    "country": "France",
    "iso2": "FR",
    "iso3": "FRA",
    "region": "Europe",
    "lat": 43.2919249,
    "lng": 5.3730643,
    "population": 1400000,
    "scalerank": 4,
    "difficulty": "hard"
  },
  {
    "id": "city:mosul:iq",
    "name": "Mosul",
    "kind": "city",
    "countryCode": "IQ",
    "country": "Iraq",
    "iso2": "IQ",
    "iso3": "IRQ",
    "region": "Asia",
    "lat": 36.3469483,
    "lng": 43.1430586,
    "population": 1316000,
    "scalerank": 4,
    "difficulty": "medium"
  },
  {
    "id": "city:tabriz:ir",
    "name": "Tabriz",
    "kind": "city",
    "countryCode": "IR",
    "country": "Iran",
    "iso2": "IR",
    "iso3": "IRN",
    "region": "Asia",
    "lat": 38.0882374,
    "lng": 46.2993,
    "population": 1413000,
    "scalerank": 4,
    "difficulty": "medium"
  },
  {
    "id": "city:ludhiana:in",
    "name": "Ludhiana",
    "kind": "city",
    "countryCode": "IN",
    "country": "India",
    "iso2": "IN",
    "iso3": "IND",
    "region": "Asia",
    "lat": 30.9297079,
    "lng": 75.8703116,
    "population": 1649000,
    "scalerank": 4,
    "difficulty": "hard"
  },
  {
    "id": "city:lucknow:in",
    "name": "Lucknow",
    "kind": "city",
    "countryCode": "IN",
    "country": "India",
    "iso2": "IN",
    "iso3": "IND",
    "region": "Asia",
    "lat": 26.8569849,
    "lng": 80.9130529,
    "population": 2695000,
    "scalerank": 4,
    "difficulty": "medium"
  },
  {
    "id": "city:ranchi:in",
    "name": "Ranchi",
    "kind": "city",
    "countryCode": "IN",
    "country": "India",
    "iso2": "IN",
    "iso3": "IND",
    "region": "Asia",
    "lat": 23.3719522,
    "lng": 85.3280805,
    "population": 1044000,
    "scalerank": 4,
    "difficulty": "medium"
  },
  {
    "id": "city:jabalpur:in",
    "name": "Jabalpur",
    "kind": "city",
    "countryCode": "IN",
    "country": "India",
    "iso2": "IN",
    "iso3": "IND",
    "region": "Asia",
    "lat": 23.1770028,
    "lng": 79.9531115,
    "population": 1285000,
    "scalerank": 4,
    "difficulty": "hard"
  },
  {
    "id": "city:indore:in",
    "name": "Indore",
    "kind": "city",
    "countryCode": "IN",
    "country": "India",
    "iso2": "IN",
    "iso3": "IND",
    "region": "Asia",
    "lat": 22.7170051,
    "lng": 75.8630769,
    "population": 2026000,
    "scalerank": 4,
    "difficulty": "hard"
  },
  {
    "id": "city:s-o-lu-s:br",
    "name": "São Luís",
    "kind": "city",
    "countryCode": "BR",
    "country": "Brazil",
    "iso2": "BR",
    "iso3": "BRA",
    "region": "South America",
    "lat": -2.5140388,
    "lng": -44.2679367,
    "population": 1038000,
    "scalerank": 4,
    "difficulty": "hard"
  },
  {
    "id": "city:belo-horizonte:br",
    "name": "Belo Horizonte",
    "kind": "city",
    "countryCode": "BR",
    "country": "Brazil",
    "iso2": "BR",
    "iso3": "BRA",
    "region": "South America",
    "lat": -19.9130802,
    "lng": -43.9169504,
    "population": 5575000,
    "scalerank": 4,
    "difficulty": "medium"
  },
  {
    "id": "city:macei:br",
    "name": "Maceió",
    "kind": "city",
    "countryCode": "BR",
    "country": "Brazil",
    "iso2": "BR",
    "iso3": "BRA",
    "region": "South America",
    "lat": -9.6180496,
    "lng": -35.7319203,
    "population": 1186000,
    "scalerank": 4,
    "difficulty": "hard"
  },
  {
    "id": "city:vila-velha:br",
    "name": "Vila Velha",
    "kind": "city",
    "countryCode": "BR",
    "country": "Brazil",
    "iso2": "BR",
    "iso3": "BRA",
    "region": "South America",
    "lat": -20.338046307430577,
    "lng": -40.290232724874905,
    "population": 1209091,
    "scalerank": 4,
    "difficulty": "hard"
  },
  {
    "id": "city:natal:br",
    "name": "Natal",
    "kind": "city",
    "countryCode": "BR",
    "country": "Brazil",
    "iso2": "BR",
    "iso3": "BRA",
    "region": "South America",
    "lat": -5.7780773,
    "lng": -35.2419502,
    "population": 1088000,
    "scalerank": 4,
    "difficulty": "medium"
  },
  {
    "id": "city:rosario:ar",
    "name": "Rosario",
    "kind": "city",
    "countryCode": "AR",
    "country": "Argentina",
    "iso2": "AR",
    "iso3": "ARG",
    "region": "South America",
    "lat": -32.9491837,
    "lng": -60.6682535,
    "population": 1203000,
    "scalerank": 4,
    "difficulty": "hard"
  },
  {
    "id": "city:campinas:br",
    "name": "Campinas",
    "kind": "city",
    "countryCode": "BR",
    "country": "Brazil",
    "iso2": "BR",
    "iso3": "BRA",
    "region": "South America",
    "lat": -22.90789786605005,
    "lng": -47.05588541861934,
    "population": 2791000,
    "scalerank": 4,
    "difficulty": "hard"
  },
  {
    "id": "city:khulna:bd",
    "name": "Khulna",
    "kind": "city",
    "countryCode": "BD",
    "country": "Bangladesh",
    "iso2": "BD",
    "iso3": "BGD",
    "region": "Asia",
    "lat": 22.8419329,
    "lng": 89.5580549,
    "population": 1553000,
    "scalerank": 4,
    "difficulty": "medium"
  },
  {
    "id": "city:mandalay:mm",
    "name": "Mandalay",
    "kind": "city",
    "countryCode": "MM",
    "country": "Myanmar",
    "iso2": "MM",
    "iso3": "MMR",
    "region": "Asia",
    "lat": 21.9719343,
    "lng": 96.083083,
    "population": 1300000,
    "scalerank": 4,
    "difficulty": "medium"
  },
  {
    "id": "city:taichung:tw",
    "name": "Taichung",
    "kind": "city",
    "countryCode": "TW",
    "country": "Taiwan",
    "iso2": "TW",
    "iso3": "TWN",
    "region": "Asia",
    "lat": 24.1520775,
    "lng": 120.681667,
    "population": 2629323,
    "scalerank": 4,
    "difficulty": "medium"
  },
  {
    "id": "city:jamshedpur:in",
    "name": "Jamshedpur",
    "kind": "city",
    "countryCode": "IN",
    "country": "India",
    "iso2": "IN",
    "iso3": "IND",
    "region": "Asia",
    "lat": 22.7894813,
    "lng": 86.1955728,
    "population": 1300000,
    "scalerank": 3,
    "difficulty": "hard"
  },
  {
    "id": "city:san-jose:us",
    "name": "San Jose",
    "kind": "city",
    "countryCode": "US",
    "country": "United States of America",
    "iso2": "US",
    "iso3": "USA",
    "region": "North America",
    "lat": 37.33094269973713,
    "lng": -121.88817862628899,
    "population": 1668000,
    "scalerank": 3,
    "difficulty": "hard"
  },
  {
    "id": "city:sacramento:us",
    "name": "Sacramento",
    "kind": "city",
    "countryCode": "US",
    "country": "United States of America",
    "iso2": "US",
    "iso3": "USA",
    "region": "North America",
    "lat": 38.5769672,
    "lng": -121.4719839,
    "population": 1604000,
    "scalerank": 3,
    "difficulty": "medium"
  },
  {
    "id": "city:las-vegas:us",
    "name": "Las Vegas",
    "kind": "city",
    "countryCode": "US",
    "country": "United States of America",
    "iso2": "US",
    "iso3": "USA",
    "region": "North America",
    "lat": 36.16476322583196,
    "lng": -115.15136155601854,
    "population": 1823000,
    "scalerank": 3,
    "difficulty": "hard"
  },
  {
    "id": "city:portland:us",
    "name": "Portland",
    "kind": "city",
    "countryCode": "US",
    "country": "United States of America",
    "iso2": "US",
    "iso3": "USA",
    "region": "North America",
    "lat": 45.5219697,
    "lng": -122.6819359,
    "population": 1875000,
    "scalerank": 3,
    "difficulty": "hard"
  },
  {
    "id": "city:san-antonio:us",
    "name": "San Antonio",
    "kind": "city",
    "countryCode": "US",
    "country": "United States of America",
    "iso2": "US",
    "iso3": "USA",
    "region": "North America",
    "lat": 29.419848478603353,
    "lng": -98.4926929920987,
    "population": 1473000,
    "scalerank": 3,
    "difficulty": "hard"
  },
  {
    "id": "city:valencia:ve",
    "name": "Valencia",
    "kind": "city",
    "countryCode": "VE",
    "country": "Venezuela",
    "iso2": "VE",
    "iso3": "VEN",
    "region": "South America",
    "lat": 10.2319274,
    "lng": -67.9819673,
    "population": 1770000,
    "scalerank": 3,
    "difficulty": "medium"
  },
  {
    "id": "city:raleigh:us",
    "name": "Raleigh",
    "kind": "city",
    "countryCode": "US",
    "country": "United States of America",
    "iso2": "US",
    "iso3": "USA",
    "region": "North America",
    "lat": 35.77269601271186,
    "lng": -78.64703463664539,
    "population": 1163515,
    "scalerank": 3,
    "difficulty": "medium"
  },
  {
    "id": "city:cleveland:us",
    "name": "Cleveland",
    "kind": "city",
    "countryCode": "US",
    "country": "United States of America",
    "iso2": "US",
    "iso3": "USA",
    "region": "North America",
    "lat": 41.4719327,
    "lng": -81.6969441,
    "population": 1890000,
    "scalerank": 3,
    "difficulty": "hard"
  },
  {
    "id": "city:cincinnati:us",
    "name": "Cincinnati",
    "kind": "city",
    "countryCode": "US",
    "country": "United States of America",
    "iso2": "US",
    "iso3": "USA",
    "region": "North America",
    "lat": 39.1638306,
    "lng": -84.4588685,
    "population": 1636000,
    "scalerank": 3,
    "difficulty": "hard"
  },
  {
    "id": "city:memphis:us",
    "name": "Memphis",
    "kind": "city",
    "countryCode": "US",
    "country": "United States of America",
    "iso2": "US",
    "iso3": "USA",
    "region": "North America",
    "lat": 35.14470115515157,
    "lng": -90.02877702278532,
    "population": 1081000,
    "scalerank": 3,
    "difficulty": "hard"
  },
  {
    "id": "city:norfolk:us",
    "name": "Norfolk",
    "kind": "city",
    "countryCode": "US",
    "country": "United States of America",
    "iso2": "US",
    "iso3": "USA",
    "region": "North America",
    "lat": 36.8499587,
    "lng": -76.2800057,
    "population": 1047869,
    "scalerank": 3,
    "difficulty": "hard"
  },
  {
    "id": "city:milwaukee:us",
    "name": "Milwaukee",
    "kind": "city",
    "countryCode": "US",
    "country": "United States of America",
    "iso2": "US",
    "iso3": "USA",
    "region": "North America",
    "lat": 43.029608354300805,
    "lng": -87.91667321462553,
    "population": 1388000,
    "scalerank": 3,
    "difficulty": "hard"
  },
  {
    "id": "city:buffalo:us",
    "name": "Buffalo",
    "kind": "city",
    "countryCode": "US",
    "country": "United States of America",
    "iso2": "US",
    "iso3": "USA",
    "region": "North America",
    "lat": 42.8819241,
    "lng": -78.8819479,
    "population": 1016000,
    "scalerank": 3,
    "difficulty": "hard"
  },
  {
    "id": "city:pittsburgh:us",
    "name": "Pittsburgh",
    "kind": "city",
    "countryCode": "US",
    "country": "United States of America",
    "iso2": "US",
    "iso3": "USA",
    "region": "North America",
    "lat": 40.4319445,
    "lng": -80.0019313,
    "population": 1838000,
    "scalerank": 3,
    "difficulty": "hard"
  },
  {
    "id": "city:glasgow:gb",
    "name": "Glasgow",
    "kind": "city",
    "countryCode": "GB",
    "country": "United Kingdom",
    "iso2": "GB",
    "iso3": "GBR",
    "region": "Europe",
    "lat": 55.86226975799262,
    "lng": -4.239100528802634,
    "population": 1160000,
    "scalerank": 3,
    "difficulty": "hard"
  },
  {
    "id": "city:aden:ye",
    "name": "Aden",
    "kind": "city",
    "countryCode": "YE",
    "country": "Yemen",
    "iso2": "YE",
    "iso3": "YEM",
    "region": "Asia",
    "lat": 12.7797225,
    "lng": 45.0094901,
    "population": 1000000,
    "scalerank": 3,
    "difficulty": "medium"
  },
  {
    "id": "city:seville:es",
    "name": "Seville",
    "kind": "city",
    "countryCode": "ES",
    "country": "Spain",
    "iso2": "ES",
    "iso3": "ESP",
    "region": "Europe",
    "lat": 37.4050153,
    "lng": -5.9800074,
    "population": 1212045,
    "scalerank": 3,
    "difficulty": "medium"
  },
  {
    "id": "city:multan:pk",
    "name": "Multan",
    "kind": "city",
    "countryCode": "PK",
    "country": "Pakistan",
    "iso2": "PK",
    "iso3": "PAK",
    "region": "Asia",
    "lat": 30.2019229,
    "lng": 71.4530618,
    "population": 1522000,
    "scalerank": 3,
    "difficulty": "hard"
  },
  {
    "id": "city:hyderabad:pk",
    "name": "Hyderabad",
    "kind": "city",
    "countryCode": "PK",
    "country": "Pakistan",
    "iso2": "PK",
    "iso3": "PAK",
    "region": "Asia",
    "lat": 25.3819329,
    "lng": 68.3730431,
    "population": 1459000,
    "scalerank": 3,
    "difficulty": "hard"
  },
  {
    "id": "city:peshawar:pk",
    "name": "Peshawar",
    "kind": "city",
    "countryCode": "PK",
    "country": "Pakistan",
    "iso2": "PK",
    "iso3": "PAK",
    "region": "Asia",
    "lat": 34.006962,
    "lng": 71.5330569,
    "population": 1303000,
    "scalerank": 3,
    "difficulty": "medium"
  },
  {
    "id": "city:fez:ma",
    "name": "Fez",
    "kind": "city",
    "countryCode": "MA",
    "country": "Morocco",
    "iso2": "MA",
    "iso3": "MAR",
    "region": "Africa",
    "lat": 34.0565455,
    "lng": -5.0023231,
    "population": 1002000,
    "scalerank": 3,
    "difficulty": "medium"
  },
  {
    "id": "city:port-elizabeth:za",
    "name": "Port Elizabeth",
    "kind": "city",
    "countryCode": "ZA",
    "country": "South Africa",
    "iso2": "ZA",
    "iso3": "ZAF",
    "region": "Africa",
    "lat": -33.9680879,
    "lng": 25.598083,
    "population": 1021000,
    "scalerank": 3,
    "difficulty": "hard"
  },
  {
    "id": "city:nizhny-novgorod:ru",
    "name": "Nizhny Novgorod",
    "kind": "city",
    "countryCode": "RU",
    "country": "Russia",
    "iso2": "RU",
    "iso3": "RUS",
    "region": "Europe",
    "lat": 56.3349531,
    "lng": 43.9981485,
    "population": 1278000,
    "scalerank": 3,
    "difficulty": "medium"
  },
  {
    "id": "city:ufa:ru",
    "name": "Ufa",
    "kind": "city",
    "countryCode": "RU",
    "country": "Russia",
    "iso2": "RU",
    "iso3": "RUS",
    "region": "Europe",
    "lat": 54.7919207,
    "lng": 56.0380854,
    "population": 1018000,
    "scalerank": 3,
    "difficulty": "medium"
  },
  {
    "id": "city:yekaterinburg:ru",
    "name": "Yekaterinburg",
    "kind": "city",
    "countryCode": "RU",
    "country": "Russia",
    "iso2": "RU",
    "iso3": "RUS",
    "region": "Europe",
    "lat": 56.8519758,
    "lng": 60.5980138,
    "population": 1313000,
    "scalerank": 3,
    "difficulty": "medium"
  },
  {
    "id": "city:samara:ru",
    "name": "Samara",
    "kind": "city",
    "countryCode": "RU",
    "country": "Russia",
    "iso2": "RU",
    "iso3": "RUS",
    "region": "Europe",
    "lat": 53.1969534,
    "lng": 50.1493493,
    "population": 1137000,
    "scalerank": 3,
    "difficulty": "medium"
  },
  {
    "id": "city:kazan:ru",
    "name": "Kazan",
    "kind": "city",
    "countryCode": "RU",
    "country": "Russia",
    "iso2": "RU",
    "iso3": "RUS",
    "region": "Europe",
    "lat": 55.7518879,
    "lng": 49.1243989,
    "population": 1115000,
    "scalerank": 3,
    "difficulty": "medium"
  },
  {
    "id": "city:novosibirsk:ru",
    "name": "Novosibirsk",
    "kind": "city",
    "countryCode": "RU",
    "country": "Russia",
    "iso2": "RU",
    "iso3": "RUS",
    "region": "Europe",
    "lat": 55.031906,
    "lng": 82.958096,
    "population": 1389000,
    "scalerank": 3,
    "difficulty": "medium"
  },
  {
    "id": "city:davao:ph",
    "name": "Davao",
    "kind": "city",
    "countryCode": "PH",
    "country": "Philippines",
    "iso2": "PH",
    "iso3": "PHL",
    "region": "Asia",
    "lat": 7.1119628,
    "lng": 125.6280496,
    "population": 1402000,
    "scalerank": 3,
    "difficulty": "hard"
  },
  {
    "id": "city:tijuana:mx",
    "name": "Tijuana",
    "kind": "city",
    "countryCode": "MX",
    "country": "Mexico",
    "iso2": "MX",
    "iso3": "MEX",
    "region": "North America",
    "lat": 32.5019634,
    "lng": -117.0819418,
    "population": 1553000,
    "scalerank": 3,
    "difficulty": "hard"
  },
  {
    "id": "city:xining:cn",
    "name": "Xining",
    "kind": "city",
    "countryCode": "CN",
    "country": "China",
    "iso2": "CN",
    "iso3": "CHN",
    "region": "Asia",
    "lat": 36.6219445,
    "lng": 101.768059,
    "population": 1048000,
    "scalerank": 3,
    "difficulty": "medium"
  },
  {
    "id": "city:huainan:cn",
    "name": "Huainan",
    "kind": "city",
    "countryCode": "CN",
    "country": "China",
    "iso2": "CN",
    "iso3": "CHN",
    "region": "Asia",
    "lat": 32.6319296,
    "lng": 116.978035,
    "population": 1451000,
    "scalerank": 3,
    "difficulty": "hard"
  },
  {
    "id": "city:shantou:cn",
    "name": "Shantou",
    "kind": "city",
    "countryCode": "CN",
    "country": "China",
    "iso2": "CN",
    "iso3": "CHN",
    "region": "Asia",
    "lat": 23.3719522,
    "lng": 116.6680797,
    "population": 1601000,
    "scalerank": 3,
    "difficulty": "hard"
  },
  {
    "id": "city:semarang:id",
    "name": "Semarang",
    "kind": "city",
    "countryCode": "ID",
    "country": "Indonesia",
    "iso2": "ID",
    "iso3": "IDN",
    "region": "Asia",
    "lat": -6.9646716,
    "lng": 110.4180736,
    "population": 1396000,
    "scalerank": 3,
    "difficulty": "medium"
  },
  {
    "id": "city:palembang:id",
    "name": "Palembang",
    "kind": "city",
    "countryCode": "ID",
    "country": "Indonesia",
    "iso2": "ID",
    "iso3": "IDN",
    "region": "Asia",
    "lat": -2.9780932,
    "lng": 104.7480838,
    "population": 1749000,
    "scalerank": 3,
    "difficulty": "medium"
  },
  {
    "id": "city:makassar:id",
    "name": "Makassar",
    "kind": "city",
    "countryCode": "ID",
    "country": "Indonesia",
    "iso2": "ID",
    "iso3": "IDN",
    "region": "Asia",
    "lat": -5.138013,
    "lng": 119.4300817,
    "population": 1262000,
    "scalerank": 3,
    "difficulty": "medium"
  },
  {
    "id": "city:lyon:fr",
    "name": "Lyon",
    "kind": "city",
    "countryCode": "FR",
    "country": "France",
    "iso2": "FR",
    "iso3": "FRA",
    "region": "Europe",
    "lat": 45.7719544,
    "lng": 4.8280846,
    "population": 1423000,
    "scalerank": 3,
    "difficulty": "hard"
  },
  {
    "id": "city:qiqihar:cn",
    "name": "Qiqihar",
    "kind": "city",
    "countryCode": "CN",
    "country": "China",
    "iso2": "CN",
    "iso3": "CHN",
    "region": "Asia",
    "lat": 47.3469229,
    "lng": 123.9880464,
    "population": 1641000,
    "scalerank": 3,
    "difficulty": "hard"
  },
  {
    "id": "city:lubumbashi:cd",
    "name": "Lubumbashi",
    "kind": "city",
    "countryCode": "CD",
    "country": "Congo (Kinshasa)",
    "iso2": "CD",
    "iso3": "COD",
    "region": "Africa",
    "lat": -11.6780789,
    "lng": 27.4780716,
    "population": 1352000,
    "scalerank": 3,
    "difficulty": "medium"
  },
  {
    "id": "city:vishakhapatnam:in",
    "name": "Vishakhapatnam",
    "kind": "city",
    "countryCode": "IN",
    "country": "India",
    "iso2": "IN",
    "iso3": "IND",
    "region": "Asia",
    "lat": 17.68290316150216,
    "lng": 83.21984846162533,
    "population": 1529000,
    "scalerank": 3,
    "difficulty": "hard"
  },
  {
    "id": "city:banghazi:ly",
    "name": "Banghazi",
    "kind": "city",
    "countryCode": "LY",
    "country": "Libya",
    "iso2": "LY",
    "iso3": "LBY",
    "region": "Africa",
    "lat": 32.1186793,
    "lng": 20.0647773,
    "population": 1180000,
    "scalerank": 3,
    "difficulty": "medium"
  },
  {
    "id": "city:almaty:kz",
    "name": "Almaty",
    "kind": "city",
    "countryCode": "KZ",
    "country": "Kazakhstan",
    "iso2": "KZ",
    "iso3": "KAZ",
    "region": "Asia",
    "lat": 43.3269357,
    "lng": 76.9130903,
    "population": 1209000,
    "scalerank": 3,
    "difficulty": "medium"
  },
  {
    "id": "city:isfahan:ir",
    "name": "Isfahan",
    "kind": "city",
    "countryCode": "IR",
    "country": "Iran",
    "iso2": "IR",
    "iso3": "IRN",
    "region": "Asia",
    "lat": 32.7019512,
    "lng": 51.6980919,
    "population": 1628000,
    "scalerank": 3,
    "difficulty": "medium"
  },
  {
    "id": "city:shiraz:ir",
    "name": "Shiraz",
    "kind": "city",
    "countryCode": "IR",
    "country": "Iran",
    "iso2": "IR",
    "iso3": "IRN",
    "region": "Asia",
    "lat": 29.631906,
    "lng": 52.5680647,
    "population": 1240000,
    "scalerank": 3,
    "difficulty": "medium"
  },
  {
    "id": "city:amritsar:in",
    "name": "Amritsar",
    "kind": "city",
    "countryCode": "IN",
    "country": "India",
    "iso2": "IN",
    "iso3": "IND",
    "region": "Asia",
    "lat": 31.6419384,
    "lng": 74.8680472,
    "population": 1212000,
    "scalerank": 3,
    "difficulty": "hard"
  },
  {
    "id": "city:varanasi:in",
    "name": "Varanasi",
    "kind": "city",
    "countryCode": "IN",
    "country": "India",
    "iso2": "IN",
    "iso3": "IND",
    "region": "Asia",
    "lat": 25.3319359,
    "lng": 82.9980936,
    "population": 1352000,
    "scalerank": 3,
    "difficulty": "hard"
  },
  {
    "id": "city:asansol:in",
    "name": "Asansol",
    "kind": "city",
    "countryCode": "IN",
    "country": "India",
    "iso2": "IN",
    "iso3": "IND",
    "region": "Asia",
    "lat": 23.6852792,
    "lng": 86.9813874,
    "population": 1328000,
    "scalerank": 3,
    "difficulty": "hard"
  },
  {
    "id": "city:bhilai:in",
    "name": "Bhilai",
    "kind": "city",
    "countryCode": "IN",
    "country": "India",
    "iso2": "IN",
    "iso3": "IND",
    "region": "Asia",
    "lat": 21.21126196187745,
    "lng": 81.3722129528492,
    "population": 1097000,
    "scalerank": 3,
    "difficulty": "hard"
  },
  {
    "id": "city:bhopal:in",
    "name": "Bhopal",
    "kind": "city",
    "countryCode": "IN",
    "country": "India",
    "iso2": "IN",
    "iso3": "IND",
    "region": "Asia",
    "lat": 23.2519337,
    "lng": 77.4080472,
    "population": 1727000,
    "scalerank": 3,
    "difficulty": "medium"
  },
  {
    "id": "city:madurai:in",
    "name": "Madurai",
    "kind": "city",
    "countryCode": "IN",
    "country": "India",
    "iso2": "IN",
    "iso3": "IND",
    "region": "Asia",
    "lat": 9.9219721,
    "lng": 78.1180814,
    "population": 1294000,
    "scalerank": 3,
    "difficulty": "hard"
  },
  {
    "id": "city:coimbatore:in",
    "name": "Coimbatore",
    "kind": "city",
    "countryCode": "IN",
    "country": "India",
    "iso2": "IN",
    "iso3": "IND",
    "region": "Asia",
    "lat": 11.0019062,
    "lng": 76.9480753,
    "population": 1696000,
    "scalerank": 3,
    "difficulty": "hard"
  },
  {
    "id": "city:manaus:br",
    "name": "Manaus",
    "kind": "city",
    "countryCode": "BR",
    "country": "Brazil",
    "iso2": "BR",
    "iso3": "BRA",
    "region": "South America",
    "lat": -3.0980859,
    "lng": -60.0019634,
    "population": 1753000,
    "scalerank": 3,
    "difficulty": "medium"
  },
  {
    "id": "city:florian-polis:br",
    "name": "Florianópolis",
    "kind": "city",
    "countryCode": "BR",
    "country": "Brazil",
    "iso2": "BR",
    "iso3": "BRA",
    "region": "South America",
    "lat": -27.5780387,
    "lng": -48.5219664,
    "population": 1023000,
    "scalerank": 3,
    "difficulty": "hard"
  },
  {
    "id": "city:calgary:ca",
    "name": "Calgary",
    "kind": "city",
    "countryCode": "CA",
    "country": "Canada",
    "iso2": "CA",
    "iso3": "CAN",
    "region": "North America",
    "lat": 51.0849376,
    "lng": -114.0819441,
    "population": 1110000,
    "scalerank": 3,
    "difficulty": "hard"
  },
  {
    "id": "city:c-rdoba:ar",
    "name": "Córdoba",
    "kind": "city",
    "countryCode": "AR",
    "country": "Argentina",
    "iso2": "AR",
    "iso3": "ARG",
    "region": "South America",
    "lat": -31.3980122,
    "lng": -64.1842404,
    "population": 1452000,
    "scalerank": 3,
    "difficulty": "hard"
  },
  {
    "id": "city:huambo:ao",
    "name": "Huambo",
    "kind": "city",
    "countryCode": "AO",
    "country": "Angola",
    "iso2": "AO",
    "iso3": "AGO",
    "region": "Africa",
    "lat": -12.7480395,
    "lng": 15.7580635,
    "population": 1100000,
    "scalerank": 3,
    "difficulty": "medium"
  },
  {
    "id": "city:santa-cruz:bo",
    "name": "Santa Cruz",
    "kind": "city",
    "countryCode": "BO",
    "country": "Bolivia",
    "iso2": "BO",
    "iso3": "BOL",
    "region": "South America",
    "lat": -17.7519718,
    "lng": -63.2279422,
    "population": 2102998,
    "scalerank": 3,
    "difficulty": "medium"
  },
  {
    "id": "city:adelaide:au",
    "name": "Adelaide",
    "kind": "city",
    "countryCode": "AU",
    "country": "Australia",
    "iso2": "AU",
    "iso3": "AUS",
    "region": "Oceania",
    "lat": -34.9330419,
    "lng": 138.598059,
    "population": 1145000,
    "scalerank": 3,
    "difficulty": "medium"
  },
  {
    "id": "city:brisbane:au",
    "name": "Brisbane",
    "kind": "city",
    "countryCode": "AU",
    "country": "Australia",
    "iso2": "AU",
    "iso3": "AUS",
    "region": "Oceania",
    "lat": -27.453085,
    "lng": 153.0331469,
    "population": 1860000,
    "scalerank": 3,
    "difficulty": "medium"
  },
  {
    "id": "city:san-juan:pr",
    "name": "San Juan",
    "kind": "city",
    "countryCode": "PR",
    "country": "Puerto Rico",
    "iso2": "PR",
    "iso3": "PRI",
    "region": "North America",
    "lat": 18.440023,
    "lng": -66.1299793,
    "population": 2478905,
    "scalerank": 3,
    "difficulty": "medium"
  },
  {
    "id": "city:kaohsiung:tw",
    "name": "Kaohsiung",
    "kind": "city",
    "countryCode": "TW",
    "country": "Taiwan",
    "iso2": "TW",
    "iso3": "TWN",
    "region": "Asia",
    "lat": 22.6333071,
    "lng": 120.2666019,
    "population": 2769072,
    "scalerank": 3,
    "difficulty": "medium"
  },
  {
    "id": "city:shenzhen:cn",
    "name": "Shenzhen",
    "kind": "city",
    "countryCode": "CN",
    "country": "China",
    "iso2": "CN",
    "iso3": "CHN",
    "region": "Asia",
    "lat": 22.54809707412332,
    "lng": 114.06115351896277,
    "population": 7581000,
    "scalerank": 2,
    "difficulty": "medium"
  },
  {
    "id": "city:zibo:cn",
    "name": "Zibo",
    "kind": "city",
    "countryCode": "CN",
    "country": "China",
    "iso2": "CN",
    "iso3": "CHN",
    "region": "Asia",
    "lat": 36.82136457648037,
    "lng": 117.9964595757144,
    "population": 3061000,
    "scalerank": 2,
    "difficulty": "medium"
  },
  {
    "id": "city:minneapolis:us",
    "name": "Minneapolis",
    "kind": "city",
    "countryCode": "US",
    "country": "United States of America",
    "iso2": "US",
    "iso3": "USA",
    "region": "North America",
    "lat": 44.9819251,
    "lng": -93.2537322,
    "population": 2616000,
    "scalerank": 2,
    "difficulty": "medium"
  },
  {
    "id": "city:seattle:us",
    "name": "Seattle",
    "kind": "city",
    "countryCode": "US",
    "country": "United States of America",
    "iso2": "US",
    "iso3": "USA",
    "region": "North America",
    "lat": 47.600423319460475,
    "lng": -122.31532231603904,
    "population": 3074000,
    "scalerank": 2,
    "difficulty": "medium"
  },
  {
    "id": "city:phoenix:us",
    "name": "Phoenix",
    "kind": "city",
    "countryCode": "US",
    "country": "United States of America",
    "iso2": "US",
    "iso3": "USA",
    "region": "North America",
    "lat": 33.44832240381263,
    "lng": -112.06736527766587,
    "population": 3551000,
    "scalerank": 2,
    "difficulty": "easy"
  },
  {
    "id": "city:san-diego:us",
    "name": "San Diego",
    "kind": "city",
    "countryCode": "US",
    "country": "United States of America",
    "iso2": "US",
    "iso3": "USA",
    "region": "North America",
    "lat": 32.71891385421138,
    "lng": -117.15088145402623,
    "population": 2916000,
    "scalerank": 2,
    "difficulty": "medium"
  },
  {
    "id": "city:st-louis:us",
    "name": "St. Louis",
    "kind": "city",
    "countryCode": "US",
    "country": "United States of America",
    "iso2": "US",
    "iso3": "USA",
    "region": "North America",
    "lat": 38.6369636,
    "lng": -90.2419264,
    "population": 2199000,
    "scalerank": 2,
    "difficulty": "medium"
  },
  {
    "id": "city:dallas:us",
    "name": "Dallas",
    "kind": "city",
    "countryCode": "US",
    "country": "United States of America",
    "iso2": "US",
    "iso3": "USA",
    "region": "North America",
    "lat": 32.771958135439206,
    "lng": -96.79468722529398,
    "population": 4798000,
    "scalerank": 2,
    "difficulty": "medium"
  },
  {
    "id": "city:maracaibo:ve",
    "name": "Maracaibo",
    "kind": "city",
    "countryCode": "VE",
    "country": "Venezuela",
    "iso2": "VE",
    "iso3": "VEN",
    "region": "South America",
    "lat": 10.7319227,
    "lng": -71.6619235,
    "population": 2072000,
    "scalerank": 2,
    "difficulty": "easy"
  },
  {
    "id": "city:boston:us",
    "name": "Boston",
    "kind": "city",
    "countryCode": "US",
    "country": "United States of America",
    "iso2": "US",
    "iso3": "USA",
    "region": "North America",
    "lat": 42.331906,
    "lng": -71.0719595,
    "population": 4467000,
    "scalerank": 2,
    "difficulty": "easy"
  },
  {
    "id": "city:tampa:us",
    "name": "Tampa",
    "kind": "city",
    "countryCode": "US",
    "country": "United States of America",
    "iso2": "US",
    "iso3": "USA",
    "region": "North America",
    "lat": 27.9489338,
    "lng": -82.4605667,
    "population": 2314000,
    "scalerank": 2,
    "difficulty": "medium"
  },
  {
    "id": "city:philadelphia:us",
    "name": "Philadelphia",
    "kind": "city",
    "countryCode": "US",
    "country": "United States of America",
    "iso2": "US",
    "iso3": "USA",
    "region": "North America",
    "lat": 39.94594243742075,
    "lng": -75.1798412402816,
    "population": 5492000,
    "scalerank": 2,
    "difficulty": "medium"
  },
  {
    "id": "city:detroit:us",
    "name": "Detroit",
    "kind": "city",
    "countryCode": "US",
    "country": "United States of America",
    "iso2": "US",
    "iso3": "USA",
    "region": "North America",
    "lat": 42.33355800559568,
    "lng": -83.05133408216001,
    "population": 4101000,
    "scalerank": 2,
    "difficulty": "medium"
  },
  {
    "id": "city:ho-chi-minh-city:vn",
    "name": "Ho Chi Minh City",
    "kind": "city",
    "countryCode": "VN",
    "country": "Vietnam",
    "iso2": "VN",
    "iso3": "VNM",
    "region": "Asia",
    "lat": 10.762124565177512,
    "lng": 106.70298470218748,
    "population": 5314000,
    "scalerank": 2,
    "difficulty": "easy"
  },
  {
    "id": "city:barcelona:es",
    "name": "Barcelona",
    "kind": "city",
    "countryCode": "ES",
    "country": "Spain",
    "iso2": "ES",
    "iso3": "ESP",
    "region": "Europe",
    "lat": 41.3852454,
    "lng": 2.1814245,
    "population": 4920000,
    "scalerank": 2,
    "difficulty": "easy"
  },
  {
    "id": "city:aleppo:sy",
    "name": "Aleppo",
    "kind": "city",
    "countryCode": "SY",
    "country": "Syria",
    "iso2": "SY",
    "iso3": "SYR",
    "region": "Asia",
    "lat": 36.2319166,
    "lng": 37.1680744,
    "population": 2738000,
    "scalerank": 2,
    "difficulty": "medium"
  },
  {
    "id": "city:z-rich:ch",
    "name": "Zürich",
    "kind": "city",
    "countryCode": "CH",
    "country": "Switzerland",
    "iso2": "CH",
    "iso3": "CHE",
    "region": "Europe",
    "lat": 47.3819337,
    "lng": 8.5480643,
    "population": 1108000,
    "scalerank": 2,
    "difficulty": "medium"
  },
  {
    "id": "city:jeddah:sa",
    "name": "Jeddah",
    "kind": "city",
    "countryCode": "SA",
    "country": "Saudi Arabia",
    "iso2": "SA",
    "iso3": "SAU",
    "region": "Asia",
    "lat": 21.5188353,
    "lng": 39.2172517,
    "population": 3012000,
    "scalerank": 2,
    "difficulty": "medium"
  },
  {
    "id": "city:makkah:sa",
    "name": "Makkah",
    "kind": "city",
    "countryCode": "SA",
    "country": "Saudi Arabia",
    "iso2": "SA",
    "iso3": "SAU",
    "region": "Asia",
    "lat": 21.4319672,
    "lng": 39.8180936,
    "population": 1385000,
    "scalerank": 2,
    "difficulty": "hard"
  },
  {
    "id": "city:lahore:pk",
    "name": "Lahore",
    "kind": "city",
    "countryCode": "PK",
    "country": "Pakistan",
    "iso2": "PK",
    "iso3": "PAK",
    "region": "Asia",
    "lat": 31.5619174,
    "lng": 74.3480789,
    "population": 6577000,
    "scalerank": 2,
    "difficulty": "easy"
  },
  {
    "id": "city:karachi:pk",
    "name": "Karachi",
    "kind": "city",
    "countryCode": "PK",
    "country": "Pakistan",
    "iso2": "PK",
    "iso3": "PAK",
    "region": "Asia",
    "lat": 24.8719381,
    "lng": 66.9880631,
    "population": 12130000,
    "scalerank": 2,
    "difficulty": "easy"
  },
  {
    "id": "city:durban:za",
    "name": "Durban",
    "kind": "city",
    "countryCode": "ZA",
    "country": "South Africa",
    "iso2": "ZA",
    "iso3": "ZAF",
    "region": "Africa",
    "lat": -29.86066234118211,
    "lng": 31.01094366326237,
    "population": 2729000,
    "scalerank": 2,
    "difficulty": "medium"
  },
  {
    "id": "city:st-petersburg:ru",
    "name": "St.  Petersburg",
    "kind": "city",
    "countryCode": "RU",
    "country": "Russia",
    "iso2": "RU",
    "iso3": "RUS",
    "region": "Europe",
    "lat": 59.9409604,
    "lng": 30.3140742,
    "population": 4553000,
    "scalerank": 2,
    "difficulty": "easy"
  },
  {
    "id": "city:guadalajara:mx",
    "name": "Guadalajara",
    "kind": "city",
    "countryCode": "MX",
    "country": "Mexico",
    "iso2": "MX",
    "iso3": "MEX",
    "region": "North America",
    "lat": 20.671962,
    "lng": -103.3319801,
    "population": 4198000,
    "scalerank": 2,
    "difficulty": "easy"
  },
  {
    "id": "city:puebla:mx",
    "name": "Puebla",
    "kind": "city",
    "countryCode": "MX",
    "country": "Mexico",
    "iso2": "MX",
    "iso3": "MEX",
    "region": "North America",
    "lat": 19.032593839016364,
    "lng": -98.20373725542488,
    "population": 2195000,
    "scalerank": 2,
    "difficulty": "easy"
  },
  {
    "id": "city:kano:ng",
    "name": "Kano",
    "kind": "city",
    "countryCode": "NG",
    "country": "Nigeria",
    "iso2": "NG",
    "iso3": "NGA",
    "region": "Africa",
    "lat": 12.0019227,
    "lng": 8.5180919,
    "population": 3140000,
    "scalerank": 2,
    "difficulty": "easy"
  },
  {
    "id": "city:medan:id",
    "name": "Medan",
    "kind": "city",
    "countryCode": "ID",
    "country": "Indonesia",
    "iso2": "ID",
    "iso3": "IDN",
    "region": "Asia",
    "lat": 3.5819198,
    "lng": 98.6480944,
    "population": 2115000,
    "scalerank": 2,
    "difficulty": "easy"
  },
  {
    "id": "city:naples:it",
    "name": "Naples",
    "kind": "city",
    "countryCode": "IT",
    "country": "Italy",
    "iso2": "IT",
    "iso3": "ITA",
    "region": "Europe",
    "lat": 40.8419711,
    "lng": 14.2430655,
    "population": 2250000,
    "scalerank": 2,
    "difficulty": "medium"
  },
  {
    "id": "city:milan:it",
    "name": "Milan",
    "kind": "city",
    "countryCode": "IT",
    "country": "Italy",
    "iso2": "IT",
    "iso3": "ITA",
    "region": "Europe",
    "lat": 45.4719211,
    "lng": 9.2030631,
    "population": 2945000,
    "scalerank": 2,
    "difficulty": "medium"
  },